$GNRMC,172010.00,V,,,,,,,251122,,,N*61
$GNVTG,,,,,,,,,N*2E
$GNGGA,172010.00,,,,,0,00,99.99,,,,,,*7D
$GNGSA,A,1,,,,,,,,,,,,,99.99,99.99,99.99*2E
$GNGSA,A,1,,,,,,,,,,,,,99.99,99.99,99.99*2E
$GPGSV,1,1,03,06,,,28,19,,,26,22,,,36*7F
$GLGSV,1,1,04,67,,,37,75,,,29,,,,26,,,,30*6A
$GNGLL,,,,,172010.00,V,N*51
$GNRMC,172011.00,V,,,,,,,251122,,,N*60
$GNVTG,,,,,,,,,N*2E
$GNGGA,172011.00,,,,,0,00,99.99,,,,,,*7C
$GNGSA,A,1,,,,,,,,,,,,,99.99,99.99,99.99*2E
$GNGSA,A,1,,,,,,,,,,,,,99.99,99.99,99.99*2E
$GPGSV,1,1,03,06,,,28,19,,,23,22,,,36*7A
$GLGSV,1,1,04,67,,,37,75,,,29,,,,26,,,,30*6A
$GNGLL,,,,,172011.00,V,N*50
$GNRMC,172012.50,V,,,,,,,251122,,,N*66
$GNVTG,,,,,,,,,N*2E
$GNGGA,172012.50,,,,,0,00,99.99,,,,,,*7A
$GNGSA,A,1,,,,,,,,,,,,,99.99,99.99,99.99*2E
$GNGSA,A,1,,,,,,,,,,,,,99.99,99.99,99.99*2E
$GPGSV,1,1,03,06,,,28,19,,,21,22,,,36*78
$GLGSV,1,1,04,67,,,38,75,,,30,,,,26,,,,30*6D
$GNGLL,,,,,172012.50,V,N*56
$GNRMC,172013.50,V,,,,,,,251122,,,N*67
$GNVTG,,,,,,,,,N*2E
$GNGGA,172013.50,,,,,0,00,99.99,,,,,,*7B
$GNGSA,A,1,,,,,,,,,,,,,99.99,99.99,99.99*2E
$GNGSA,A,1,,,,,,,,,,,,,99.99,99.99,99.99*2E
$GPGSV,1,1,03,06,,,29,19,,,22,22,,,36*7A
$GLGSV,1,1,04,67,,,38,75,,,29,,,,26,,,,29*6D
$GNGLL,,,,,172013.50,V,N*57
$GNRMC,172014.00,V,,,,,,,251122,,,N*65
$GNVTG,,,,,,,,,N*2E
$GNGGA,172014.00,,,,,0,00,99.99,,,,,,*79
$GNGSA,A,1,,,,,,,,,,,,,99.99,99.99,99.99*2E
$GNGSA,A,1,,,,,,,,,,,,,99.99,99.99,99.99*2E
$GPGSV,1,1,03,06,,,28,19,,,22,22,,,36*7B
$GLGSV,1,1,04,67,,,38,75,,,29,,,,25,,,,29*6E
$GNGLL,,,,,172014.00,V,N*55
$GNRMC,172015.00,V,,,,,,,251122,,,N*64
$GNVTG,,,,,,,,,N*2E
$GNGGA,172015.00,,,,,0,00,99.99,,,,,,*78
$GNGSA,A,1,,,,,,,,,,,,,99.99,99.99,99.99*2E
$GNGSA,A,1,,,,,,,,,,,,,99.99,99.99,99.99*2E
$GPGSV,1,1,03,06,,,28,19,,,22,22,,,36*7B
$GLGSV,1,1,04,67,,,38,75,,,29,,,,25,,,,29*6E
$GNGLL,,,,,172015.00,V,N*54
$GNRMC,172016.00,V,,,,,,,251122,,,N*67
$GNVTG,,,,,,,,,N*2E
$GNGGA,172016.00,,,,,0,00,99.99,,,,,,*7B
$GNGSA,A,1,,,,,,,,,,,,,99.99,99.99,99.99*2E
$GNGSA,A,1,,,,,,,,,,,,,99.99,99.99,99.99*2E
$GPGSV,1,1,03,06,,,28,19,,,21,22,,,36*78
$GLGSV,1,1,04,67,,,38,75,,,28,,,,25,,,,29*6F
$GNGLL,,,,,172016.00,V,N*57
$GNRMC,172017.00,V,,,,,,,251122,,,N*66
$GNVTG,,,,,,,,,N*2E
$GNGGA,172017.00,,,,,0,00,99.99,,,,,,*7A
$GNGSA,A,1,,,,,,,,,,,,,99.99,99.99,99.99*2E
$GNGSA,A,1,,,,,,,,,,,,,99.99,99.99,99.99*2E
$GPGSV,1,1,03,06,,,28,19,,,20,22,,,36*79
$GLGSV,1,1,04,67,,,38,75,,,28,,,,25,,,,30*67
$GNGLL,,,,,172017.00,V,N*56
$GNRMC,172018.00,V,,,,,,,251122,,,N*69
$GNVTG,,,,,,,,,N*2E
$GNGGA,172018.00,,,,,0,00,99.99,,,,,,*75
$GNGSA,A,1,,,,,,,,,,,,,99.99,99.99,99.99*2E
$GNGSA,A,1,,,,,,,,,,,,,99.99,99.99,99.99*2E
$GPGSV,1,1,03,06,,,29,19,,,20,22,,,36*78
$GLGSV,1,1,04,67,,,38,75,,,29,,,,25,,,,30*66
$GNGLL,,,,,172018.00,V,N*59
$GNRMC,172019.00,V,,,,,,,251122,,,N*68
$GNVTG,,,,,,,,,N*2E
$GNGGA,172019.00,,,,,0,00,99.99,,,,,,*74
$GNGSA,A,1,,,,,,,,,,,,,99.99,99.99,99.99*2E
$GNGSA,A,1,,,,,,,,,,,,,99.99,99.99,99.99*2E
$GPGSV,1,1,03,06,,,29,19,,,21,22,,,37*78
$GLGSV,1,1,04,67,,,38,75,,,29,,,,25,,,,30*66
$GNGLL,,,,,172019.00,V,N*58
$GNRMC,172020.00,V,,,,,,,251122,,,N*62
$GNVTG,,,,,,,,,N*2E
$GNGGA,172020.00,,,,,0,00,99.99,,,,,,*7E
$GNGSA,A,1,,,,,,,,,,,,,99.99,99.99,99.99*2E
$GNGSA,A,1,,,,,,,,,,,,,99.99,99.99,99.99*2E
$GPGSV,1,1,03,06,,,29,19,,,22,22,,,37*7B
$GLGSV,1,1,04,67,,,38,75,,,29,,,,25,,,,31*67
$GNGLL,,,,,172020.00,V,N*52
$GNRMC,172021.00,V,,,,,,,251122,,,N*63
$GNVTG,,,,,,,,,N*2E
$GNGGA,172021.00,,,,,0,00,99.99,,,,,,*7F
$GNGSA,A,1,,,,,,,,,,,,,99.99,99.99,99.99*2E
$GNGSA,A,1,,,,,,,,,,,,,99.99,99.99,99.99*2E
$GPGSV,1,1,03,06,,,29,19,,,22,22,,,37*7B
$GLGSV,1,1,04,67,,,38,75,,,29,,,,26,,,,31*64
$GNGLL,,,,,172021.00,V,N*53
$GNRMC,172022.00,V,,,,,,,251122,,,N*60
$GNVTG,,,,,,,,,N*2E
$GNGGA,172022.00,,,,,0,00,99.99,,,,,,*7C
$GNGSA,A,1,,,,,,,,,,,,,99.99,99.99,99.99*2E
$GNGSA,A,1,,,,,,,,,,,,,99.99,99.99,99.99*2E
$GPGSV,1,1,03,06,,,29,19,,,23,22,,,37*7A
$GLGSV,1,1,04,67,,,38,75,,,29,,,,25,,,,31*67
$GNGLL,,,,,172022.00,V,N*50
$GNRMC,172023.00,V,,,,,,,251122,,,N*61
$GNVTG,,,,,,,,,N*2E
$GNGGA,172023.00,,,,,0,00,99.99,,,,,,*7D
$GNGSA,A,1,,,,,,,,,,,,,99.99,99.99,99.99*2E
$GNGSA,A,1,,,,,,,,,,,,,99.99,99.99,99.99*2E
$GPGSV,1,1,03,06,,,29,19,,,25,22,,,37*7C
$GLGSV,1,1,04,67,,,37,75,,,29,,,,26,,,,31*6B
$GNGLL,,,,,172023.00,V,N*51
$GNRMC,172024.00,V,,,,,,,251122,,,N*66
$GNVTG,,,,,,,,,N*2E
$GNGGA,172024.00,,,,,0,00,99.99,,,,,,*7A
$GNGSA,A,1,,,,,,,,,,,,,99.99,99.99,99.99*2E
$GNGSA,A,1,,,,,,,,,,,,,99.99,99.99,99.99*2E
$GPGSV,1,1,03,06,,,29,19,,,26,22,,,37*7F
$GLGSV,1,1,04,67,,,35,75,,,28,,,,25,,,,29*62
$GNGLL,,,,,172024.00,V,N*56
$GNRMC,172025.00,V,,,,,,,251122,,,N*67
$GNVTG,,,,,,,,,N*2E
$GNGGA,172025.00,,,,,0,00,99.99,,,,,,*7B
$GNGSA,A,1,,,,,,,,,,,,,99.99,99.99,99.99*2E
$GNGSA,A,1,,,,,,,,,,,,,99.99,99.99,99.99*2E
$GPGSV,1,1,03,06,,,29,19,,,26,22,,,37*7F
$GLGSV,1,1,04,67,,,36,75,,,28,,,,25,,,,29*61
$GNGLL,,,,,172025.00,V,N*57
$GNRMC,172026.00,V,,,,,,,251122,,,N*64
$GNVTG,,,,,,,,,N*2E
$GNGGA,172026.00,,,,,0,00,99.99,,,,,,*78
$GNGSA,A,1,,,,,,,,,,,,,99.99,99.99,99.99*2E
$GNGSA,A,1,,,,,,,,,,,,,99.99,99.99,99.99*2E
$GPGSV,1,1,03,06,,,29,19,,,28,22,,,37*71
$GLGSV,1,1,04,67,,,36,75,,,27,,,,25,,,,28*6F
$GNGLL,,,,,172026.00,V,N*54
$GNRMC,172027.00,V,,,,,,,251122,,,N*65
$GNVTG,,,,,,,,,N*2E
$GNGGA,172027.00,,,,,0,00,99.99,,,,,,*79
$GNGSA,A,1,,,,,,,,,,,,,99.99,99.99,99.99*2E
$GNGSA,A,1,,,,,,,,,,,,,99.99,99.99,99.99*2E
$GPGSV,1,1,03,06,,,30,19,,,28,22,,,37*79
$GLGSV,1,1,04,67,,,36,75,,,27,,,,25,,,,28*6F
$GNGLL,,,,,172027.00,V,N*55
$GNRMC,172028.00,V,,,,,,,251122,,,N*6A
$GNVTG,,,,,,,,,N*2E
$GNGGA,172028.00,,,,,0,00,99.99,,,,,,*76
$GNGSA,A,1,,,,,,,,,,,,,99.99,99.99,99.99*2E
$GNGSA,A,1,,,,,,,,,,,,,99.99,99.99,99.99*2E
$GPGSV,1,1,03,06,,,31,19,,,29,22,,,37*79
$GLGSV,1,1,04,67,,,36,75,,,27,,,,25,,,,28*6F
$GNGLL,,,,,172028.00,V,N*5A
$GNRMC,172029.00,V,,,,,,,251122,,,N*6B
$GNVTG,,,,,,,,,N*2E
$GNGGA,172029.00,,,,,0,00,99.99,,,,,,*77
$GNGSA,A,1,,,,,,,,,,,,,99.99,99.99,99.99*2E
$GNGSA,A,1,,,,,,,,,,,,,99.99,99.99,99.99*2E
$GPGSV,1,1,03,06,,,30,19,,,30,22,,,35*72
$GLGSV,1,1,04,67,,,36,75,,,27,,,,25,,,,28*6F
$GNGLL,,,,,172029.00,V,N*5B
$GNRMC,172030.00,V,,,,,,,251122,,,N*63
$GNVTG,,,,,,,,,N*2E
$GNGGA,172030.00,,,,,0,04,19.97,,,,,,*7D
$GNGSA,A,1,22,06,,,,,,,,,,,20.50,19.97,4.63*18
$GNGSA,A,1,67,75,,,,,,,,,,,20.50,19.97,4.63*1D
$GPGSV,1,1,03,06,13,071,29,19,,,29,22,28,311,36*7C
$GLGSV,3,1,09,65,08,197,,66,45,245,,67,35,318,36,68,00,352,*6A
$GLGSV,3,2,09,75,43,068,26,84,22,023,,85,34,092,,86,11,134,*66
$GLGSV,3,3,09,,,,28*66
$GNGLL,,,,,172030.00,V,N*53
$GNRMC,172031.00,V,,,,,,,251122,,,N*62
$GNVTG,,,,,,,,,N*2E
$GNGGA,172031.00,,,,,0,04,19.98,,,,,,*73
$GNGSA,A,1,22,06,,,,,,,,,,,20.51,19.98,4.64*11
$GNGSA,A,1,67,75,,,,,,,,,,,20.51,19.98,4.64*14
$GPGSV,1,1,03,06,13,071,28,19,,,28,22,28,311,36*7C
$GLGSV,3,1,09,65,08,197,,66,45,245,,67,35,318,36,68,00,352,*6A
$GLGSV,3,2,09,75,43,068,26,84,22,023,,85,34,092,27,86,11,134,*63
$GLGSV,3,3,09,,,,27*69
$GNGLL,,,,,172031.00,V,N*52
$GNRMC,172032.00,V,,,,,,,251122,,,N*61
$GNVTG,,,,,,,,,N*2E
$GNGGA,172032.00,,,,,0,04,19.99,,,,,,*71
$GNGSA,A,1,22,06,,,,,,,,,,,20.53,19.99,4.64*12
$GNGSA,A,1,67,75,,,,,,,,,,,20.53,19.99,4.64*17
$GPGSV,1,1,03,06,13,071,27,19,,,28,22,28,311,36*73
$GLGSV,3,1,09,65,08,197,,66,45,245,,67,35,318,36,68,00,352,*6A
$GLGSV,3,2,09,75,43,068,26,84,22,023,,85,34,092,26,86,11,134,*62
$GLGSV,3,3,09,,,,28*66
$GNGLL,,,,,172032.00,V,N*51
$GNRMC,172033.00,V,,,,,,,251122,,,N*60
$GNVTG,,,,,,,,,N*2E
$GNGGA,172033.00,,,,,0,04,20.01,,,,,,*7B
$GNGSA,A,1,22,06,,,,,,,,,,,20.54,20.01,4.65*1F
$GNGSA,A,1,67,75,,,,,,,,,,,20.54,20.01,4.65*1A
$GPGSV,1,1,03,06,13,071,27,19,,,28,22,28,311,36*73
$GLGSV,3,1,09,65,08,197,,66,45,245,,67,35,318,36,68,00,352,*6A
$GLGSV,3,2,09,75,43,068,26,84,22,023,,85,34,092,26,86,11,134,*62
$GLGSV,3,3,09,,,,28*66
$GNGLL,,,,,172033.00,V,N*50
$GNRMC,172034.00,V,,,,,,,251122,,,N*67
$GNVTG,,,,,,,,,N*2E
$GNGGA,172034.00,,,,,0,04,20.02,,,,,,*7F
$GNGSA,A,1,22,06,,,,,,,,,,,20.55,20.02,4.66*1E
$GNGSA,A,1,67,75,,,,,,,,,,,20.55,20.02,4.66*1B
$GPGSV,1,1,03,06,13,071,27,19,,,27,22,28,311,35*7F
$GLGSV,3,1,09,65,08,197,,66,45,245,,67,35,318,36,68,00,352,*6A
$GLGSV,3,2,09,75,43,068,26,84,22,023,,85,34,092,26,86,11,134,*62
$GLGSV,3,3,09,,,,28*66
$GNGLL,,,,,172034.00,V,N*57
$GNRMC,172035.00,V,,,,,,,251122,,,N*66
$GNVTG,,,,,,,,,N*2E
$GNGGA,172035.00,,,,,0,04,20.03,,,,,,*7F
$GNGSA,A,1,22,06,,,,,,,,,,,20.57,20.03,4.66*1D
$GNGSA,A,1,67,75,,,,,,,,,,,20.57,20.03,4.66*18
$GPGSV,1,1,03,06,13,071,27,19,,,28,22,28,311,35*70
$GLGSV,3,1,09,65,08,197,,66,45,245,,67,35,318,36,68,00,352,*6A
$GLGSV,3,2,09,75,43,068,26,84,22,023,20,85,34,092,26,86,11,134,*60
$GLGSV,3,3,09,,,,29*67
$GNGLL,,,,,172035.00,V,N*56
$GNRMC,172036.00,V,,,,,,,251122,,,N*65
$GNVTG,,,,,,,,,N*2E
$GNGGA,172036.00,,,,,0,04,20.04,,,,,,*7B
$GNGSA,A,1,22,06,,,,,,,,,,,20.58,20.04,4.67*14
$GNGSA,A,1,67,75,,,,,,,,,,,20.58,20.04,4.67*11
$GPGSV,1,1,03,06,13,071,27,19,,,28,22,28,311,38*7D
$GLGSV,3,1,09,65,08,197,,66,45,245,,67,35,318,36,68,00,352,*6A
$GLGSV,3,2,09,75,43,068,26,84,22,023,20,85,34,092,25,86,11,134,*63
$GLGSV,3,3,09,,,,28*66
$GNGLL,,,,,172036.00,V,N*55
$GNRMC,172037.00,V,,,,,,,251122,,,N*64
$GNVTG,,,,,,,,,N*2E
$GNGGA,172037.00,,,,,0,04,20.05,,,,,,*7B
$GNGSA,A,1,22,06,,,,,,,,,,,20.59,20.05,4.68*1B
$GNGSA,A,1,67,75,,,,,,,,,,,20.59,20.05,4.68*1E
$GPGSV,1,1,04,06,13,071,28,19,,,28,22,28,311,37,29,07,184,*4B
$GLGSV,3,1,09,65,08,197,,66,45,245,,67,35,318,36,68,00,352,*6A
$GLGSV,3,2,09,75,43,068,25,84,22,023,21,85,34,092,25,86,11,134,*61
$GLGSV,3,3,09,,,,28*66
$GNGLL,,,,,172037.00,V,N*54
$GNRMC,172038.00,V,,,,,,,251122,,,N*6B
$GNVTG,,,,,,,,,N*2E
$GNGGA,172038.00,,,,,0,04,20.06,,,,,,*77
$GNGSA,A,1,22,06,,,,,,,,,,,20.60,20.06,4.68*12
$GNGSA,A,1,67,75,,,,,,,,,,,20.60,20.06,4.68*17
$GPGSV,1,1,04,06,13,071,27,19,,,28,22,28,311,36,29,07,184,*45
$GLGSV,3,1,09,65,08,197,,66,45,245,,67,35,318,36,68,00,352,*6A
$GLGSV,3,2,09,75,43,068,25,84,22,023,21,85,34,092,25,86,11,134,*61
$GLGSV,3,3,09,,,,28*66
$GNGLL,,,,,172038.00,V,N*5B
$GNRMC,172039.00,V,,,,,,,251122,,,N*6A
$GNVTG,,,,,,,,,N*2E
$GNGGA,172039.00,,,,,0,04,20.08,,,,,,*78
$GNGSA,A,1,22,06,,,,,,,,,,,20.62,20.08,4.69*1F
$GNGSA,A,1,67,75,,,,,,,,,,,20.62,20.08,4.69*1A
$GPGSV,1,1,04,06,13,071,26,19,,,27,22,28,311,35,29,07,184,*48
$GLGSV,3,1,09,65,08,197,,66,45,245,,67,35,318,36,68,00,352,*6A
$GLGSV,3,2,09,75,43,068,25,84,22,023,22,85,34,092,25,86,11,134,*62
$GLGSV,3,3,09,,,,28*66
$GNGLL,,,,,172039.00,V,N*5A
$GNRMC,172040.00,V,,,,,,,251122,,,N*64
$GNVTG,,,,,,,,,N*2E
$GNGGA,172040.00,,,,,0,04,20.09,,,,,,*77
$GNGSA,A,1,22,06,,,,,,,,,,,20.63,20.09,4.70*17
$GNGSA,A,1,67,75,,,,,,,,,,,20.63,20.09,4.70*12
$GPGSV,1,1,04,06,13,071,26,19,,,27,22,28,311,35,29,07,184,*48
$GLGSV,3,1,09,65,08,197,,66,45,245,,67,35,318,36,68,00,352,*6A
$GLGSV,3,2,09,75,43,068,25,84,22,023,22,85,34,092,25,86,11,134,*62
$GLGSV,3,3,09,,,,29*67
$GNGLL,,,,,172040.00,V,N*54
$GNRMC,172041.00,V,,,,,,,251122,,,N*65
$GNVTG,,,,,,,,,N*2E
$GNGGA,172041.00,,,,,0,04,20.10,,,,,,*7E
$GNGSA,A,1,22,06,,,,,,,,,,,20.64,20.10,4.70*18
$GNGSA,A,1,67,75,,,,,,,,,,,20.64,20.10,4.70*1D
$GPGSV,1,1,04,06,13,071,26,19,,,26,22,28,311,35,29,07,184,*49
$GLGSV,3,1,09,65,08,197,,66,45,245,,67,35,318,36,68,00,352,*6A
$GLGSV,3,2,09,75,43,068,25,84,22,023,22,85,34,092,25,86,11,134,*62
$GLGSV,3,3,09,,,,29*67
$GNGLL,,,,,172041.00,V,N*55
$GNRMC,172042.00,A,5318.49313,N,00613.50802,W,0.198,,251122,,,A*71
$GNVTG,,T,,M,0.198,N,0.366,K,A*3E
$GNGGA,172042.00,5318.49313,N,00613.50802,W,1,04,20.11,32.1,M,52.8,M,,*53
$GNGSA,A,3,22,06,,,,,,,,,,,20.66,20.11,4.71*18
$GNGSA,A,3,67,75,,,,,,,,,,,20.66,20.11,4.71*1D
$GPGSV,1,1,04,06,13,071,25,19,,,26,22,28,311,35,29,07,184,*4A
$GLGSV,3,1,09,65,08,197,,66,45,245,,67,35,318,36,68,00,352,*6A
$GLGSV,3,2,09,75,43,068,25,84,22,023,22,85,34,092,25,86,11,134,*62
$GLGSV,3,3,09,,,,29*67
$GNGLL,5318.49313,N,00613.50802,W,172042.00,A,A*6F
$GNRMC,172043.00,A,5318.49365,N,00613.50770,W,0.050,,251122,,,A*7E
$GNVTG,,T,,M,0.050,N,0.093,K,A*32
$GNGGA,172043.00,5318.49365,N,00613.50770,W,1,04,20.12,31.9,M,52.8,M,,*51
$GNGSA,A,3,22,06,,,,,,,,,,,20.67,20.12,4.71*1A
$GNGSA,A,3,67,75,,,,,,,,,,,20.67,20.12,4.71*1F
$GPGSV,1,1,04,06,13,071,25,19,,,25,22,28,311,35,29,07,184,*49
$GLGSV,3,1,09,65,08,197,,66,45,245,,67,35,318,36,68,00,352,*6A
$GLGSV,3,2,09,75,43,068,25,84,22,023,22,85,34,092,25,86,11,134,*62
$GLGSV,3,3,09,,,,29*67
$GNGLL,5318.49365,N,00613.50770,W,172043.00,A,A*65
$GNRMC,172044.00,A,5318.49482,N,00613.50709,W,0.278,,251122,,,A*71
$GNVTG,,T,,M,0.278,N,0.515,K,A*31
$GNGGA,172044.00,5318.49482,N,00613.50709,W,1,04,20.13,31.6,M,52.8,M,,*58
$GNGSA,A,3,22,06,,,,,,,,,,,20.68,20.13,4.72*17
$GNGSA,A,3,67,75,,,,,,,,,,,20.68,20.13,4.72*12
$GPGSV,1,1,04,06,13,071,26,19,,,26,22,28,311,37,29,07,184,*4B
$GLGSV,3,1,09,65,08,197,,66,45,245,,67,35,318,36,68,00,352,*6A
$GLGSV,3,2,09,75,43,068,23,84,22,023,22,85,34,092,25,86,11,134,*64
$GLGSV,3,3,09,,,,29*67
$GNGLL,5318.49482,N,00613.50709,W,172044.00,A,A*62
$GNRMC,172045.00,A,5318.49628,N,00613.50633,W,0.260,,251122,,,A*73
$GNVTG,,T,,M,0.260,N,0.482,K,A*37
$GNGGA,172045.00,5318.49628,N,00613.50633,W,1,04,20.15,31.3,M,52.8,M,,*50
$GNGSA,A,3,22,06,,,,,,,,,,,20.69,20.15,4.73*11
$GNGSA,A,3,67,75,,,,,,,,,,,20.69,20.15,4.73*14
$GPGSV,1,1,04,06,13,071,27,19,,,28,22,28,311,39,29,07,184,20*48
$GLGSV,3,1,09,65,08,197,,66,45,245,,67,35,318,36,68,00,352,*6A
$GLGSV,3,2,09,75,43,068,23,84,22,023,21,85,34,092,25,86,11,134,*67
$GLGSV,3,3,09,,,,29*67
$GNGLL,5318.49628,N,00613.50633,W,172045.00,A,A*69
$GNRMC,172046.00,A,5318.49696,N,00613.50593,W,0.270,,251122,,,A*7D
$GNVTG,,T,,M,0.270,N,0.500,K,A*3D
$GNGGA,172046.00,5318.49696,N,00613.50593,W,1,04,20.16,30.8,M,52.8,M,,*56
$GNGSA,A,3,22,06,,,,,,,,,,,20.71,20.16,4.73*1B
$GNGSA,A,3,67,75,,,,,,,,,,,20.71,20.16,4.73*1E
$GPGSV,1,1,04,06,13,071,26,19,,,27,22,28,311,36,29,07,184,17*4D
$GLGSV,3,1,09,65,08,197,,66,45,245,,67,35,318,36,68,00,352,*6A
$GLGSV,3,2,09,75,43,068,22,84,22,023,21,85,34,092,24,86,11,134,*67
$GLGSV,3,3,09,,,,29*67
$GNGLL,5318.49696,N,00613.50593,W,172046.00,A,A*66
$GNRMC,172047.00,A,5318.49698,N,00613.50567,W,0.235,,251122,,,A*78
$GNVTG,,T,,M,0.235,N,0.436,K,A*38
$GNGGA,172047.00,5318.49698,N,00613.50567,W,1,04,20.17,30.9,M,52.8,M,,*52
$GNGSA,A,3,22,06,,,,,,,,,,,20.72,20.17,4.74*1E
$GNGSA,A,3,67,75,,,,,,,,,,,20.72,20.17,4.74*1B
$GPGSV,1,1,04,06,13,071,25,19,,,27,22,28,311,35,29,07,184,15*4F
$GLGSV,3,1,09,65,08,197,,66,45,245,,67,35,318,36,68,00,352,*6A
$GLGSV,3,2,09,75,43,068,21,84,22,023,21,85,34,092,23,86,11,134,*63
$GLGSV,3,3,09,,,,29*67
$GNGLL,5318.49698,N,00613.50567,W,172047.00,A,A*62
$GNRMC,172048.00,A,5318.49742,N,00613.50535,W,0.461,,251122,,,A*71
$GNVTG,,T,,M,0.461,N,0.855,K,A*36
$GNGGA,172048.00,5318.49742,N,00613.50535,W,1,04,20.18,30.6,M,52.8,M,,*5C
$GNGSA,A,3,22,06,,,,,,,,,,,20.73,20.18,4.75*11
$GNGSA,A,3,67,75,,,,,,,,,,,20.73,20.18,4.75*14
$GPGSV,1,1,04,06,13,071,26,19,,,27,22,28,311,36,29,07,184,11*4B
$GLGSV,3,1,09,65,08,197,,66,45,245,,67,35,318,36,68,00,352,*6A
$GLGSV,3,2,09,75,43,068,21,84,22,023,22,85,34,092,22,86,11,134,*61
$GLGSV,3,3,09,,,,30*6F
$GNGLL,5318.49742,N,00613.50535,W,172048.00,A,A*6C
$GNRMC,172049.00,A,5318.49703,N,00613.50520,W,0.521,,251122,,,A*74
$GNVTG,,T,,M,0.521,N,0.966,K,A*32
$GNGGA,172049.00,5318.49703,N,00613.50520,W,1,04,20.19,31.0,M,52.8,M,,*5A
$GNGSA,A,3,22,06,,,,,,,,,,,20.75,20.19,4.75*16
$GNGSA,A,3,67,75,,,,,,,,,,,20.75,20.19,4.75*13
$GPGSV,1,1,04,06,13,071,25,19,,,28,22,28,311,34,29,07,184,10*44
$GLGSV,3,1,09,65,08,197,,66,45,245,,67,35,318,36,68,00,351,*69
$GLGSV,3,2,09,75,43,068,21,84,22,023,21,85,34,092,21,86,11,134,*61
$GLGSV,3,3,09,,,,30*6F
$GNGLL,5318.49703,N,00613.50520,W,172049.00,A,A*6C
$GNRMC,172050.00,A,5318.49728,N,00613.50506,W,0.746,,251122,,,A*72
$GNVTG,,T,,M,0.746,N,1.382,K,A*30
$GNGGA,172050.00,5318.49728,N,00613.50506,W,1,04,20.20,30.8,M,52.8,M,,*5C
$GNGSA,A,3,22,06,,,,,,,,,,,20.76,20.20,4.76*1C
$GNGSA,A,3,67,75,,,,,,,,,,,20.76,20.20,4.76*19
$GPGSV,1,1,04,06,13,071,25,19,,,28,22,28,311,34,29,07,184,08*4D
$GLGSV,3,1,09,65,08,197,,66,45,245,,67,35,318,36,68,00,351,*69
$GLGSV,3,2,09,75,43,068,22,84,22,023,21,85,34,092,21,86,11,134,*62
$GLGSV,3,3,09,,,,30*6F
$GNGLL,5318.49728,N,00613.50506,W,172050.00,A,A*69
$GNRMC,172051.00,A,5318.49715,N,00613.50500,W,0.333,,251122,,,A*7D
$GNVTG,,T,,M,0.333,N,0.617,K,A*3E
$GNGGA,172051.00,5318.49715,N,00613.50500,W,1,04,20.22,31.2,M,52.8,M,,*5C
$GNGSA,A,3,22,06,,,,,,,,,,,20.77,20.22,4.77*1E
$GNGSA,A,3,67,75,,,,,,,,,,,20.77,20.22,4.77*1B
$GPGSV,1,1,04,06,13,071,25,19,,,29,22,28,311,34,29,07,184,08*4C
$GLGSV,3,1,09,65,08,197,,66,45,245,,67,35,318,36,68,00,351,*69
$GLGSV,3,2,09,75,43,068,22,84,22,023,22,85,34,092,20,86,11,134,*60
$GLGSV,3,3,09,,,,30*6F
$GNGLL,5318.49715,N,00613.50500,W,172051.00,A,A*60
$GNRMC,172052.00,A,5318.49682,N,00613.50504,W,0.070,,251122,,,A*71
$GNVTG,,T,,M,0.070,N,0.129,K,A*30
$GNGGA,172052.00,5318.49682,N,00613.50504,W,1,04,20.23,31.4,M,52.8,M,,*53
$GNGSA,A,3,22,06,,,,,,,,,,,20.78,20.23,4.77*10
$GNGSA,A,3,67,75,,,,,,,,,,,20.78,20.23,4.77*15
$GPGSV,1,1,04,06,13,071,26,19,,,27,22,28,311,34,29,07,184,09*40
$GLGSV,3,1,09,65,08,197,,66,45,245,,67,35,318,36,68,00,351,*69
$GLGSV,3,2,09,75,43,068,23,84,22,023,20,85,34,092,21,86,11,134,*62
$GLGSV,3,3,09,,,,30*6F
$GNGLL,5318.49682,N,00613.50504,W,172052.00,A,A*68
$GNRMC,172053.00,A,5318.49662,N,00613.50505,W,0.177,,251122,,,A*79
$GNVTG,,T,,M,0.177,N,0.327,K,A*3A
$GNGGA,172053.00,5318.49662,N,00613.50505,W,1,04,20.24,31.6,M,52.8,M,,*58
$GNGSA,A,3,22,06,,,,,,,,,,,20.80,20.24,4.78*1F
$GNGSA,A,3,67,75,,,,,,,,,,,20.80,20.24,4.78*1A
$GPGSV,1,1,04,06,13,071,25,19,,,27,22,28,311,33,29,07,184,08*45
$GLGSV,3,1,09,65,08,197,,66,45,245,,67,35,318,36,68,00,351,*69
$GLGSV,3,2,09,75,43,068,23,84,22,023,21,85,34,092,21,86,11,134,*63
$GLGSV,3,3,09,,,,30*6F
$GNGLL,5318.49662,N,00613.50505,W,172053.00,A,A*66
$GNRMC,172054.00,A,5318.49637,N,00613.50512,W,0.448,,251122,,,A*71
$GNVTG,,T,,M,0.448,N,0.829,K,A*36
$GNGGA,172054.00,5318.49637,N,00613.50512,W,1,04,20.25,31.7,M,52.8,M,,*59
$GNGSA,A,3,22,06,,,,,,,,,,,20.81,20.25,4.79*1E
$GNGSA,A,3,67,75,,,,,,,,,,,20.81,20.25,4.79*1B
$GPGSV,1,1,04,06,13,071,25,19,,,28,22,28,311,34,29,07,184,07*42
$GLGSV,3,1,09,65,08,197,,66,45,245,,67,35,318,36,68,00,351,*69
$GLGSV,3,2,09,75,42,068,24,84,22,023,21,85,34,092,21,86,11,134,*65
$GLGSV,3,3,09,,,,29*67
$GNGLL,5318.49637,N,00613.50512,W,172054.00,A,A*67
$GNRMC,172055.00,A,5318.50302,N,00613.50299,W,0.596,,251122,,,A*7D
$GNVTG,,T,,M,0.596,N,1.105,K,A*32
$GNGGA,172055.00,5318.50302,N,00613.50299,W,1,05,3.78,31.2,M,52.8,M,,*6A
$GNGSA,A,3,22,06,19,,,,,,,,,,5.02,3.78,3.31*18
$GNGSA,A,3,67,75,,,,,,,,,,,5.02,3.78,3.31*15
$GPGSV,1,1,04,06,13,071,26,19,24,043,28,22,28,311,36,29,07,184,07*72
$GLGSV,3,1,09,65,08,197,,66,45,245,,67,35,318,36,68,00,351,*69
$GLGSV,3,2,09,75,42,068,25,84,22,023,21,85,34,092,22,86,11,134,*67
$GLGSV,3,3,09,,,,29*67
$GNGLL,5318.50302,N,00613.50299,W,172055.00,A,A*69
$GNRMC,172056.00,A,5318.50708,N,00613.50170,W,0.397,,251122,,,A*73
$GNVTG,,T,,M,0.397,N,0.735,K,A*31
$GNGGA,172056.00,5318.50708,N,00613.50170,W,1,05,3.78,31.0,M,52.8,M,,*61
$GNGSA,A,3,22,06,19,,,,,,,,,,5.02,3.78,3.31*18
$GNGSA,A,3,67,75,,,,,,,,,,,5.02,3.78,3.31*15
$GPGSV,1,1,04,06,13,071,27,19,24,043,29,22,28,311,38,29,07,184,*7B
$GLGSV,3,1,09,65,08,197,,66,45,245,,67,35,318,36,68,00,351,*69
$GLGSV,3,2,09,75,42,068,25,84,22,023,21,85,34,092,22,86,11,134,*67
$GLGSV,3,3,09,,,,29*67
$GNGLL,5318.50708,N,00613.50170,W,172056.00,A,A*60
$GNRMC,172057.00,A,5318.51001,N,00613.50081,W,0.330,,251122,,,A*7F
$GNVTG,,T,,M,0.330,N,0.611,K,A*3B
$GNGGA,172057.00,5318.51001,N,00613.50081,W,1,05,3.78,31.1,M,52.8,M,,*61
$GNGSA,A,3,22,06,19,,,,,,,,,,5.02,3.78,3.31*18
$GNGSA,A,3,67,75,,,,,,,,,,,5.02,3.78,3.31*15
$GPGSV,1,1,04,06,13,071,27,19,24,043,30,22,28,311,35,29,07,184,*7E
$GLGSV,3,1,09,65,08,197,,66,45,245,,67,35,318,36,68,00,351,*69
$GLGSV,3,2,09,75,42,068,25,84,22,023,21,85,34,092,23,86,11,134,*66
$GLGSV,3,3,09,,,,29*67
$GNGLL,5318.51001,N,00613.50081,W,172057.00,A,A*61
$GNRMC,172058.00,A,5318.51104,N,00613.50053,W,0.179,,251122,,,A*74
$GNVTG,,T,,M,0.179,N,0.331,K,A*33
$GNGGA,172058.00,5318.51104,N,00613.50053,W,1,05,3.78,31.4,M,52.8,M,,*60
$GNGSA,A,3,22,06,19,,,,,,,,,,5.02,3.78,3.31*18
$GNGSA,A,3,67,75,,,,,,,,,,,5.02,3.78,3.31*15
$GPGSV,1,1,04,06,13,071,27,19,24,043,30,22,28,311,36,29,07,184,*7D
$GLGSV,3,1,09,65,08,197,,66,45,245,,67,35,318,36,68,00,351,*69
$GLGSV,3,2,09,75,42,068,25,84,22,023,21,85,34,092,24,86,11,134,*61
$GLGSV,3,3,09,,,,29*67
$GNGLL,5318.51104,N,00613.50053,W,172058.00,A,A*65
$GNRMC,172059.00,A,5318.51266,N,00613.50014,W,0.299,,251122,,,A*7C
$GNVTG,,T,,M,0.299,N,0.554,K,A*3B
$GNGGA,172059.00,5318.51266,N,00613.50014,W,1,05,3.78,31.4,M,52.8,M,,*65
$GNGSA,A,3,22,06,19,,,,,,,,,,5.02,3.78,3.31*18
$GNGSA,A,3,67,75,,,,,,,,,,,5.02,3.78,3.31*15
$GPGSV,1,1,04,06,13,071,27,19,24,043,31,22,28,311,37,29,07,184,*7D
$GLGSV,3,1,09,65,08,197,,66,45,245,,67,35,318,35,68,00,351,*6A
$GLGSV,3,2,09,75,42,068,25,84,22,023,21,85,34,092,25,86,11,134,*60
$GLGSV,3,3,09,,,,29*67
$GNGLL,5318.51266,N,00613.50014,W,172059.00,A,A*60
$GNRMC,172100.00,A,5318.51355,N,00613.50002,W,0.450,,251122,,,A*74
$GNVTG,,T,,M,0.450,N,0.834,K,A*33
$GNGGA,172100.00,5318.51355,N,00613.50002,W,1,05,3.78,31.3,M,52.8,M,,*69
$GNGSA,A,3,22,06,19,,,,,,,,,,5.03,3.78,3.32*1A
$GNGSA,A,3,67,75,,,,,,,,,,,5.03,3.78,3.32*17
$GPGSV,2,1,05,01,,,19,06,13,071,28,19,24,043,32,22,28,311,37*4B
$GPGSV,2,2,05,29,07,184,*4D
$GLGSV,3,1,09,65,08,197,,66,45,245,,67,35,318,35,68,00,351,*6A
$GLGSV,3,2,09,75,42,068,26,84,22,023,21,85,34,091,25,86,11,134,*60
$GLGSV,3,3,09,,,,28*66
$GNGLL,5318.51355,N,00613.50002,W,172100.00,A,A*6B
$GNRMC,172101.00,A,5318.51545,N,00613.49953,W,0.102,,251122,,,A*75
$GNVTG,,T,,M,0.102,N,0.188,K,A*3F
$GNGGA,172101.00,5318.51545,N,00613.49953,W,1,05,3.78,31.1,M,52.8,M,,*68
$GNGSA,A,3,22,06,19,,,,,,,,,,5.03,3.78,3.32*1A
$GNGSA,A,3,67,75,,,,,,,,,,,5.03,3.78,3.32*17
$GPGSV,2,1,05,01,,,16,06,13,071,27,19,24,043,32,22,28,311,36*4A
$GPGSV,2,2,05,29,07,184,*4D
$GLGSV,3,1,09,65,08,197,,66,45,245,,67,35,318,35,68,00,351,*6A
$GLGSV,3,2,09,75,42,068,25,84,22,023,21,85,34,091,25,86,12,134,*60
$GLGSV,3,3,09,,,,28*66
$GNGLL,5318.51545,N,00613.49953,W,172101.00,A,A*68
$GNRMC,172102.00,A,5318.51711,N,00613.49915,W,0.191,,251122,,,A*7D
$GNVTG,,T,,M,0.191,N,0.353,K,A*31
$GNGGA,172102.00,5318.51711,N,00613.49915,W,1,05,3.78,31.0,M,52.8,M,,*6B
$GNGSA,A,3,22,06,19,,,,,,,,,,5.03,3.78,3.32*1A
$GNGSA,A,3,67,75,,,,,,,,,,,5.03,3.78,3.32*17
$GPGSV,2,1,05,01,,,14,06,13,071,27,19,24,043,31,22,28,311,36*4B
$GPGSV,2,2,05,29,07,184,*4D
$GLGSV,3,1,09,65,08,197,,66,45,245,,67,35,318,35,68,00,351,*6A
$GLGSV,3,2,09,75,42,068,25,84,22,023,21,85,34,091,25,86,12,134,*60
$GLGSV,3,3,09,,,,28*66
$GNGLL,5318.51711,N,00613.49915,W,172102.00,A,A*6A
$GNRMC,172103.00,A,5318.51812,N,00613.49895,W,0.198,,251122,,,A*70
$GNVTG,,T,,M,0.198,N,0.366,K,A*3E
$GNGGA,172103.00,5318.51812,N,00613.49895,W,1,05,3.78,30.7,M,52.8,M,,*69
$GNGSA,A,3,22,06,19,,,,,,,,,,5.03,3.78,3.32*1A
$GNGSA,A,3,67,75,,,,,,,,,,,5.03,3.78,3.32*17
$GPGSV,2,1,05,01,,,12,06,13,071,26,19,24,043,31,22,28,311,36*4C
$GPGSV,2,2,05,29,07,184,*4D
$GLGSV,3,1,09,65,08,197,,66,45,245,,67,35,318,35,68,00,351,*6A
$GLGSV,3,2,09,75,42,068,25,84,22,023,21,85,34,091,25,86,12,134,*60
$GLGSV,3,3,09,,,,28*66
$GNGLL,5318.51812,N,00613.49895,W,172103.00,A,A*6E
$GNRMC,172104.00,A,5318.51862,N,00613.49894,W,0.054,,251122,,,A*70
$GNVTG,,T,,M,0.054,N,0.099,K,A*3C
$GNGGA,172104.00,5318.51862,N,00613.49894,W,1,05,3.78,30.4,M,52.8,M,,*6B
$GNGSA,A,3,22,06,19,,,,,,,,,,5.03,3.78,3.32*1A
$GNGSA,A,3,67,75,,,,,,,,,,,5.03,3.78,3.32*17
$GPGSV,2,1,05,01,,,10,06,13,071,26,19,24,043,30,22,28,311,36*4F
$GPGSV,2,2,05,29,07,184,*4D
$GLGSV,3,1,09,65,08,197,,66,45,245,,67,35,318,35,68,00,351,*6A
$GLGSV,3,2,09,75,42,068,25,84,22,023,21,85,34,091,25,86,12,134,*60
$GLGSV,3,3,09,,,,28*66
$GNGLL,5318.51862,N,00613.49894,W,172104.00,A,A*6F
$GNRMC,172105.00,A,5318.51941,N,00613.49881,W,0.601,,251122,,,A*73
$GNVTG,,T,,M,0.601,N,1.113,K,A*38
$GNGGA,172105.00,5318.51941,N,00613.49881,W,1,05,3.78,30.2,M,52.8,M,,*68
$GNGSA,A,3,22,06,19,,,,,,,,,,5.03,3.78,3.32*1A
$GNGSA,A,3,67,75,,,,,,,,,,,5.03,3.78,3.32*17
$GPGSV,2,1,05,01,,,11,06,13,071,26,19,24,043,32,22,28,311,36*4C
$GPGSV,2,2,05,29,07,184,*4D
$GLGSV,3,1,09,65,08,197,,66,45,245,,67,35,318,35,68,00,351,*6A
$GLGSV,3,2,09,75,42,068,24,84,22,023,21,85,34,091,25,86,12,134,*61
$GLGSV,3,3,09,,,,28*66
$GNGLL,5318.51941,N,00613.49881,W,172105.00,A,A*6A
$GNRMC,172106.00,A,5318.51938,N,00613.49879,W,1.140,,251122,,,A*7A
$GNVTG,,T,,M,1.140,N,2.111,K,A*3A
$GNGGA,172106.00,5318.51938,N,00613.49879,W,1,05,3.78,30.1,M,52.8,M,,*61
$GNGSA,A,3,22,06,19,,,,,,,,,,5.03,3.78,3.33*1B
$GNGSA,A,3,67,75,,,,,,,,,,,5.03,3.78,3.33*16
$GPGSV,2,1,05,01,,,08,06,13,070,23,19,24,043,25,22,28,311,33*43
$GPGSV,2,2,05,29,07,184,*4D
$GLGSV,3,1,09,65,08,197,,66,45,245,,67,35,318,35,68,00,351,*6A
$GLGSV,3,2,09,75,42,068,23,84,22,023,21,85,34,091,26,86,12,134,*65
$GLGSV,3,3,09,,,,29*67
$GNGLL,5318.51938,N,00613.49879,W,172106.00,A,A*60
$GNRMC,172107.00,A,5318.51964,N,00613.49864,W,1.252,193.87,251122,,,A*64
$GNVTG,193.87,T,,M,1.252,N,2.318,K,A*2B
$GNGGA,172107.00,5318.51964,N,00613.49864,W,1,05,3.78,30.1,M,52.8,M,,*65
$GNGSA,A,3,22,06,19,,,,,,,,,,5.03,3.78,3.33*1B
$GNGSA,A,3,67,75,,,,,,,,,,,5.03,3.78,3.33*16
$GPGSV,2,1,05,01,,,09,06,13,070,25,19,24,043,32,22,28,311,36*47
$GPGSV,2,2,05,29,07,184,*4D
$GLGSV,3,1,09,65,08,197,,66,45,245,,67,35,318,36,68,00,351,*69
$GLGSV,3,2,09,75,42,068,22,84,22,023,22,85,34,091,26,86,12,134,*67
$GLGSV,3,3,09,,,,29*67
$GNGLL,5318.51964,N,00613.49864,W,172107.00,A,A*64
$GNRMC,172108.00,A,5318.51988,N,00613.49867,W,0.363,,251122,,,A*72
$GNVTG,,T,,M,0.363,N,0.672,K,A*38
$GNGGA,172108.00,5318.51988,N,00613.49867,W,1,05,3.78,29.6,M,52.8,M,,*64
$GNGSA,A,3,22,06,19,,,,,,,,,,5.03,3.78,3.33*1B
$GNGSA,A,3,67,75,,,,,,,,,,,5.03,3.78,3.33*16
$GPGSV,2,1,05,01,,,11,06,13,070,26,19,24,043,31,22,28,311,36*4E
$GPGSV,2,2,05,29,07,184,*4D
$GLGSV,3,1,09,65,08,197,,66,45,245,,67,35,318,36,68,00,351,*69
$GLGSV,3,2,09,75,42,068,21,84,22,023,21,85,34,091,26,86,12,134,*67
$GLGSV,3,3,09,,,,29*67
$GNGLL,5318.51988,N,00613.49867,W,172108.00,A,A*6A
$GNRMC,172109.00,A,5318.52011,N,00613.49872,W,0.156,,251122,,,A*79
$GNVTG,,T,,M,0.156,N,0.288,K,A*3D
$GNGGA,172109.00,5318.52011,N,00613.49872,W,1,05,3.77,29.0,M,52.8,M,,*62
$GNGSA,A,3,22,06,19,,,,,,,,,,5.03,3.77,3.33*14
$GNGSA,A,3,67,75,,,,,,,,,,,5.03,3.77,3.33*19
$GPGSV,2,1,05,01,,,08,06,13,070,25,19,24,043,30,22,28,311,35*47
$GPGSV,2,2,05,29,07,184,*4D
$GLGSV,3,1,09,65,08,197,,66,45,245,,67,35,318,36,68,00,351,*69
$GLGSV,3,2,09,75,42,068,21,84,22,023,22,85,34,091,26,86,12,134,*64
$GLGSV,3,3,09,,,,30*6F
$GNGLL,5318.52011,N,00613.49872,W,172109.00,A,A*65
$GNRMC,172110.00,A,5318.51986,N,00613.49853,W,0.488,,251122,,,A*70
$GNVTG,,T,,M,0.488,N,0.904,K,A*34
$GNGGA,172110.00,5318.51986,N,00613.49853,W,1,05,3.77,29.8,M,52.8,M,,*65
$GNGSA,A,3,22,06,19,,,,,,,,,,5.04,3.77,3.33*13
$GNGSA,A,3,67,75,,,,,,,,,,,5.04,3.77,3.33*1E
$GPGSV,2,1,05,01,,,07,06,13,070,25,19,24,043,30,22,28,311,34*49
$GPGSV,2,2,05,29,07,184,*4D
$GLGSV,3,1,09,65,08,197,,66,45,245,,67,35,318,36,68,00,351,*69
$GLGSV,3,2,09,75,42,068,20,84,22,023,21,85,34,091,26,86,12,134,*66
$GLGSV,3,3,09,,,,30*6F
$GNGLL,5318.51986,N,00613.49853,W,172110.00,A,A*6A
$GNRMC,172111.00,A,5318.52005,N,00613.49833,W,0.820,,251122,,,A*78
$GNVTG,,T,,M,0.820,N,1.518,K,A*3A
$GNGGA,172111.00,5318.52005,N,00613.49833,W,1,05,3.77,29.8,M,52.8,M,,*63
$GNGSA,A,3,22,06,19,,,,,,,,,,5.04,3.77,3.33*13
$GNGSA,A,3,67,75,,,,,,,,,,,5.04,3.77,3.33*1E
$GPGSV,2,1,05,01,,,07,06,13,070,24,19,24,043,30,22,28,311,34*48
$GPGSV,2,2,05,29,07,184,*4D
$GLGSV,3,1,09,65,08,197,,66,45,245,,67,35,318,36,68,00,351,*69
$GLGSV,3,2,09,75,42,068,19,84,22,023,21,85,34,091,25,86,12,134,*6F
$GLGSV,3,3,09,,,,30*6F
$GNGLL,5318.52005,N,00613.49833,W,172111.00,A,A*6C
$GNRMC,172112.00,A,5318.52013,N,00613.49803,W,1.303,183.92,251122,,,A*6B
$GNVTG,183.92,T,,M,1.303,N,2.412,K,A*26
$GNGGA,172112.00,5318.52013,N,00613.49803,W,1,05,3.77,30.3,M,52.8,M,,*67
$GNGSA,A,3,22,06,19,,,,,,,,,,5.04,3.77,3.34*14
$GNGSA,A,3,67,75,,,,,,,,,,,5.04,3.77,3.34*19
$GPGSV,2,1,05,01,,,07,06,13,070,26,19,24,043,32,22,28,311,36*4A
$GPGSV,2,2,05,29,07,184,*4D
$GLGSV,3,1,09,65,08,197,,66,45,245,,67,35,318,36,68,00,351,*69
$GLGSV,3,2,09,75,42,068,20,84,22,023,21,85,34,091,25,86,12,134,*65
$GLGSV,3,3,09,,,,30*6F
$GNGLL,5318.52013,N,00613.49803,W,172112.00,A,A*6B
$GNRMC,172113.00,A,5318.52005,N,00613.49776,W,0.774,,251122,,,A*7A
$GNVTG,,T,,M,0.774,N,1.434,K,A*3B
$GNGGA,172113.00,5318.52005,N,00613.49776,W,1,05,3.77,31.0,M,52.8,M,,*6E
$GNGSA,A,3,22,06,19,,,,,,,,,,5.04,3.77,3.34*14
$GNGSA,A,3,67,75,,,,,,,,,,,5.04,3.77,3.34*19
$GPGSV,2,1,05,01,,,07,06,13,070,26,19,24,043,30,22,28,311,32*4C
$GPGSV,2,2,05,29,07,184,*4D
$GLGSV,3,1,09,65,08,197,,66,45,245,,67,35,318,36,68,00,351,*69
$GLGSV,3,2,09,75,42,068,20,84,22,023,21,85,34,091,25,86,12,134,*65
$GLGSV,3,3,09,,,,29*67
$GNGLL,5318.52005,N,00613.49776,W,172113.00,A,A*60
$GNRMC,172114.00,A,5318.51997,N,00613.49759,W,0.509,,251122,,,A*79
$GNVTG,,T,,M,0.509,N,0.943,K,A*3F
$GNGGA,172114.00,5318.51997,N,00613.49759,W,1,05,3.77,31.4,M,52.8,M,,*61
$GNGSA,A,3,22,06,19,,,,,,,,,,5.04,3.77,3.34*14
$GNGSA,A,3,67,75,,,,,,,,,,,5.04,3.77,3.34*19
$GPGSV,2,1,05,01,,,08,06,13,070,25,19,24,043,29,22,28,311,32*48
$GPGSV,2,2,05,29,07,184,*4D
$GLGSV,3,1,09,65,08,197,,66,45,245,,67,35,318,36,68,00,351,*69
$GLGSV,3,2,09,75,42,068,20,84,22,023,21,85,34,091,25,86,12,134,*65
$GLGSV,3,3,09,,,,29*67
$GNGLL,5318.51997,N,00613.49759,W,172114.00,A,A*6B
$GNRMC,172115.00,A,5318.51990,N,00613.49743,W,0.731,,251122,,,A*7D
$GNVTG,,T,,M,0.731,N,1.353,K,A*3C
$GNGGA,172115.00,5318.51990,N,00613.49743,W,1,05,3.77,31.9,M,52.8,M,,*61
$GNGSA,A,3,22,06,19,,,,,,,,,,5.04,3.77,3.34*14
$GNGSA,A,3,67,75,,,,,,,,,,,5.04,3.77,3.34*19
$GPGSV,2,1,05,01,,,07,06,13,070,25,19,24,043,29,22,28,311,32*47
$GPGSV,2,2,05,29,07,184,*4D
$GLGSV,3,1,09,65,08,197,,66,45,245,,67,35,318,36,68,00,351,*69
$GLGSV,3,2,09,75,42,068,21,84,22,023,21,85,34,091,25,86,12,134,*64
$GLGSV,3,3,09,,,,29*67
$GNGLL,5318.51990,N,00613.49743,W,172115.00,A,A*66
$GNRMC,172116.00,A,5318.51960,N,00613.49723,W,1.006,,251122,,,A*75
$GNVTG,,T,,M,1.006,N,1.862,K,A*37
$GNGGA,172116.00,5318.51960,N,00613.49723,W,1,05,3.77,32.5,M,52.8,M,,*64
$GNGSA,A,3,22,06,19,,,,,,,,,,5.04,3.77,3.34*14
$GNGSA,A,3,67,75,,,,,,,,,,,5.04,3.77,3.34*19
$GPGSV,1,1,04,06,13,070,26,19,24,043,29,22,28,311,34,29,07,184,*77
$GLGSV,3,1,09,65,08,197,,66,45,245,,67,35,318,36,68,00,351,*69
$GLGSV,3,2,09,75,42,068,21,84,22,023,22,85,34,091,24,86,12,134,*66
$GLGSV,3,3,09,,,,29*67
$GNGLL,5318.51960,N,00613.49723,W,172116.00,A,A*6C
$GNRMC,172117.00,A,5318.52048,N,00613.49725,W,0.752,,251122,,,A*75
$GNVTG,,T,,M,0.752,N,1.392,K,A*34
$GNGGA,172117.00,5318.52048,N,00613.49725,W,1,05,3.77,31.7,M,52.8,M,,*62
$GNGSA,A,3,22,06,19,,,,,,,,,,5.04,3.77,3.34*14
$GNGSA,A,3,67,75,,,,,,,,,,,5.04,3.77,3.34*19
$GPGSV,1,1,04,06,13,070,25,19,24,043,28,22,28,311,33,29,07,184,*72
$GLGSV,3,1,09,65,08,197,,66,45,245,,67,35,318,36,68,00,351,*69
$GLGSV,3,2,09,75,42,068,22,84,22,023,22,85,34,091,24,86,12,134,*65
$GLGSV,3,3,09,,,,29*67
$GNGLL,5318.52048,N,00613.49725,W,172117.00,A,A*6B
$GNRMC,172118.00,A,5318.52033,N,00613.49713,W,0.674,,251122,,,A*76
$GNVTG,,T,,M,0.674,N,1.249,K,A*36
$GNGGA,172118.00,5318.52033,N,00613.49713,W,1,05,3.77,32.5,M,52.8,M,,*65
$GNGSA,A,3,22,06,19,,,,,,,,,,5.04,3.77,3.35*15
$GNGSA,A,3,67,75,,,,,,,,,,,5.04,3.77,3.35*18
$GPGSV,1,1,04,06,13,070,24,19,24,043,27,22,28,311,33,29,07,184,*7C
$GLGSV,3,1,09,65,08,197,,66,45,245,,67,35,318,36,68,00,351,*69
$GLGSV,3,2,09,75,42,068,22,84,22,023,22,85,34,091,24,86,12,134,*65
$GLGSV,3,3,09,,,,29*67
$GNGLL,5318.52033,N,00613.49713,W,172118.00,A,A*6D
$GNRMC,172119.00,A,5318.52161,N,00613.49707,W,0.031,,251122,,,A*73
$GNVTG,,T,,M,0.031,N,0.058,K,A*32
$GNGGA,172119.00,5318.52161,N,00613.49707,W,1,05,3.77,31.4,M,52.8,M,,*65
$GNGSA,A,3,22,06,19,,,,,,,,,,5.04,3.77,3.35*15
$GNGSA,A,3,67,75,,,,,,,,,,,5.04,3.77,3.35*18
$GPGSV,2,1,05,01,,,16,06,13,070,31,19,24,043,33,22,28,311,38*43
$GPGSV,2,2,05,29,07,184,19*45
$GLGSV,3,1,10,65,08,197,,66,45,245,,67,35,318,36,68,00,351,*61
$GLGSV,3,2,10,75,42,068,22,76,69,304,,84,22,023,23,85,34,091,23*69
$GLGSV,3,3,10,86,12,134,,,,,29*54
$GNGLL,5318.52161,N,00613.49707,W,172119.00,A,A*6F
$GNRMC,172120.00,A,5318.52167,N,00613.49720,W,0.340,,251122,,,A*7F
$GNVTG,,T,,M,0.340,N,0.629,K,A*37
$GNGGA,172120.00,5318.52167,N,00613.49720,W,1,05,3.77,30.5,M,52.8,M,,*6C
$GNGSA,A,3,22,06,19,,,,,,,,,,5.04,3.77,3.35*15
$GNGSA,A,3,67,75,,,,,,,,,,,5.04,3.77,3.35*18
$GPGSV,2,1,05,01,,,13,06,13,070,30,19,24,043,31,22,28,311,38*45
$GPGSV,2,2,05,29,07,184,16*4A
$GLGSV,3,1,10,65,08,197,,66,45,245,,67,35,318,36,68,00,351,*61
$GLGSV,3,2,10,75,42,068,22,76,69,304,30,84,22,023,22,85,34,091,23*6B
$GLGSV,3,3,10,86,12,134,,,,,29*54
$GNGLL,5318.52167,N,00613.49720,W,172120.00,A,A*66
$GNRMC,172121.00,A,5318.52183,N,00613.49722,W,0.580,,251122,,,A*7C
$GNVTG,,T,,M,0.580,N,1.073,K,A*35
$GNGGA,172121.00,5318.52183,N,00613.49722,W,1,05,3.77,30.2,M,52.8,M,,*62
$GNGSA,A,3,22,06,19,,,,,,,,,,5.05,3.77,3.35*14
$GNGSA,A,3,67,75,,,,,,,,,,,5.05,3.77,3.35*19
$GPGSV,2,1,05,01,,,24,06,13,070,29,19,24,043,31,22,28,311,37*46
$GPGSV,2,2,05,29,07,184,11*4D
$GLGSV,3,1,10,65,08,197,,66,45,245,,67,35,318,36,68,00,351,*61
$GLGSV,3,2,10,75,42,068,23,76,69,304,30,84,22,023,23,85,34,091,23*6B
$GLGSV,3,3,10,86,12,134,,,,,29*54
$GNGLL,5318.52183,N,00613.49722,W,172121.00,A,A*6F
$GNRMC,172122.00,A,5318.52183,N,00613.49721,W,0.322,,251122,,,A*72
$GNVTG,,T,,M,0.322,N,0.597,K,A*35
$GNGGA,172122.00,5318.52183,N,00613.49721,W,1,05,3.77,30.4,M,52.8,M,,*64
$GNGSA,A,3,22,06,19,,,,,,,,,,5.05,3.77,3.35*14
$GNGSA,A,3,67,75,,,,,,,,,,,5.05,3.77,3.35*19
$GPGSV,2,1,05,01,,,20,06,13,070,28,19,24,043,30,22,28,311,37*42
$GPGSV,2,2,05,29,07,184,10*4C
$GLGSV,3,1,10,65,08,197,,66,45,245,,67,35,318,36,68,00,351,*61
$GLGSV,3,2,10,75,42,068,23,76,69,304,31,84,22,023,23,85,34,091,23*6A
$GLGSV,3,3,10,86,12,134,,,,,29*54
$GNGLL,5318.52183,N,00613.49721,W,172122.00,A,A*6F
$GNRMC,172123.00,A,5318.52161,N,00613.49716,W,0.083,,251122,,,A*73
$GNVTG,,T,,M,0.083,N,0.154,K,A*36
$GNGGA,172123.00,5318.52161,N,00613.49716,W,1,05,3.77,30.9,M,52.8,M,,*60
$GNGSA,A,3,22,06,19,,,,,,,,,,5.05,3.77,3.35*14
$GNGSA,A,3,67,75,,,,,,,,,,,5.05,3.77,3.35*19
$GPGSV,2,1,05,01,,,18,06,13,070,28,19,24,043,29,22,28,311,37*41
$GPGSV,2,2,05,29,07,184,08*45
$GLGSV,3,1,11,65,08,197,,66,45,245,,67,35,318,36,68,00,351,*60
$GLGSV,3,2,11,75,42,068,23,76,69,304,31,77,22,271,,84,22,023,23*6C
$GLGSV,3,3,11,85,34,091,22,86,12,134,,,,,29*67
$GNGLL,5318.52161,N,00613.49716,W,172123.00,A,A*66
$GNRMC,172124.00,A,5318.52157,N,00613.49710,W,0.075,,251122,,,A*7E
$GNVTG,,T,,M,0.075,N,0.138,K,A*35
$GNGGA,172124.00,5318.52157,N,00613.49710,W,1,05,3.77,31.3,M,52.8,M,,*6F
$GNGSA,A,3,22,06,19,,,,,,,,,,5.05,3.77,3.36*17
$GNGSA,A,3,67,75,,,,,,,,,,,5.05,3.77,3.36*1A
$GPGSV,2,1,05,01,,,15,06,13,070,26,19,24,043,29,22,28,311,36*43
$GPGSV,2,2,05,29,07,184,10*4C
$GLGSV,3,1,11,65,07,197,,66,45,245,,67,35,318,35,68,00,351,*6C
$GLGSV,3,2,11,75,42,068,23,76,69,304,30,77,22,271,,84,22,023,22*6C
$GLGSV,3,3,11,85,34,091,21,86,12,134,,,,,29*64
$GNGLL,5318.52157,N,00613.49710,W,172124.00,A,A*62
$GNRMC,172125.00,A,5318.52160,N,00613.49704,W,0.763,,251122,,,A*7E
$GNVTG,,T,,M,0.763,N,1.414,K,A*3F
$GNGGA,172125.00,5318.52160,N,00613.49704,W,1,05,3.77,31.8,M,52.8,M,,*64
$GNGSA,A,3,22,06,19,,,,,,,,,,5.05,3.77,3.36*17
$GNGSA,A,3,67,75,,,,,,,,,,,5.05,3.77,3.36*1A
$GPGSV,2,1,05,01,,,13,06,13,070,26,19,24,043,28,22,28,311,36*44
$GPGSV,2,2,05,29,07,184,11*4D
$GLGSV,3,1,11,65,07,197,,66,44,244,,67,35,318,36,68,00,351,*6F
$GLGSV,3,2,11,75,42,068,23,76,69,304,30,77,22,271,,84,22,023,22*6C
$GLGSV,3,3,11,85,34,091,21,86,12,134,,,,,29*64
$GNGLL,5318.52160,N,00613.49704,W,172125.00,A,A*62
$GNRMC,172126.00,A,5318.52168,N,00613.49701,W,0.986,256.66,251122,,,A*6A
$GNVTG,256.66,T,,M,0.986,N,1.826,K,A*28
$GNGGA,172126.00,5318.52168,N,00613.49701,W,1,05,3.77,32.1,M,52.8,M,,*60
$GNGSA,A,3,22,06,19,,,,,,,,,,5.05,3.77,3.36*17
$GNGSA,A,3,67,75,,,,,,,,,,,5.05,3.77,3.36*1A
$GPGSV,2,1,05,01,,,11,06,13,070,26,19,24,043,28,22,28,311,36*46
$GPGSV,2,2,05,29,07,184,10*4C
$GLGSV,3,1,11,65,07,197,,66,44,244,,67,35,317,36,68,00,351,*60
$GLGSV,3,2,11,75,42,068,23,76,69,304,30,77,22,271,,84,22,023,22*6C
$GLGSV,3,3,11,85,34,091,22,86,12,134,,,,,30*6F
$GNGLL,5318.52168,N,00613.49701,W,172126.00,A,A*6C
$GNRMC,172127.00,A,5318.52167,N,00613.49687,W,0.949,307.36,251122,,,A*68
$GNVTG,307.36,T,,M,0.949,N,1.758,K,A*2D
$GNGGA,172127.00,5318.52167,N,00613.49687,W,1,05,3.77,32.8,M,52.8,M,,*68
$GNGSA,A,3,22,06,19,,,,,,,,,,5.05,3.77,3.36*17
$GNGSA,A,3,67,75,,,,,,,,,,,5.05,3.77,3.36*1A
$GPGSV,2,1,05,01,,,09,06,13,070,25,19,24,043,28,22,28,311,36*4C
$GPGSV,2,2,05,29,07,184,11*4D
$GLGSV,3,1,11,65,07,197,,66,44,244,,67,35,317,37,68,00,351,*61
$GLGSV,3,2,11,75,42,068,24,76,69,304,32,77,22,271,,84,22,023,24*6F
$GLGSV,3,3,11,85,34,091,22,86,12,134,,,,,31*6E
$GNGLL,5318.52167,N,00613.49687,W,172127.00,A,A*6D
$GNRMC,172128.00,A,5318.52161,N,00613.49685,W,0.608,,251122,,,A*76
$GNVTG,,T,,M,0.608,N,1.125,K,A*34
$GNGGA,172128.00,5318.52161,N,00613.49685,W,1,05,3.77,32.9,M,52.8,M,,*62
$GNGSA,A,3,22,06,19,,,,,,,,,,5.05,3.77,3.36*17
$GNGSA,A,3,67,75,,,,,,,,,,,5.05,3.77,3.36*1A
$GPGSV,2,1,05,01,,,09,06,13,070,25,19,24,043,27,22,28,311,36*43
$GPGSV,2,2,05,29,07,184,09*44
$GLGSV,3,1,11,65,07,197,,66,44,244,,67,35,317,37,68,00,351,*61
$GLGSV,3,2,11,75,42,068,25,76,69,304,32,77,22,271,,84,22,023,24*6E
$GLGSV,3,3,11,85,34,091,23,86,12,134,,,,,31*6F
$GNGLL,5318.52161,N,00613.49685,W,172128.00,A,A*66
$GNRMC,172129.00,A,5318.52152,N,00613.49684,W,0.561,,251122,,,A*7A
$GNVTG,,T,,M,0.561,N,1.039,K,A*34
$GNGGA,172129.00,5318.52152,N,00613.49684,W,1,05,3.77,32.9,M,52.8,M,,*62
$GNGSA,A,3,22,06,19,,,,,,,,,,5.05,3.77,3.36*17
$GNGSA,A,3,67,75,,,,,,,,,,,5.05,3.77,3.36*1A
$GPGSV,2,1,05,01,,,08,06,13,070,25,19,24,043,27,22,28,311,36*42
$GPGSV,2,2,05,29,07,184,08*45
$GLGSV,3,1,11,65,07,197,,66,44,244,,67,35,317,37,68,00,351,*61
$GLGSV,3,2,11,75,42,068,26,76,69,304,32,77,22,271,,84,22,023,25*6C
$GLGSV,3,3,11,85,34,091,24,86,12,134,,,,,31*68
$GNGLL,5318.52152,N,00613.49684,W,172129.00,A,A*66
$GNRMC,172130.00,A,5318.52136,N,00613.49683,W,0.210,,251122,,,A*76
$GNVTG,,T,,M,0.210,N,0.389,K,A*3C
$GNGGA,172130.00,5318.52136,N,00613.49683,W,1,05,3.77,32.7,M,52.8,M,,*61
$GNGSA,A,3,22,06,19,,,,,,,,,,5.05,3.77,3.37*16
$GNGSA,A,3,67,75,,,,,,,,,,,5.05,3.77,3.37*1B
$GPGSV,2,1,05,01,,,08,06,13,070,25,19,24,043,27,22,28,311,36*42
$GPGSV,2,2,05,29,07,184,08*45
$GLGSV,3,1,11,65,07,197,,66,44,244,,67,35,317,37,68,00,351,*61
$GLGSV,3,2,11,75,42,068,26,76,69,304,32,77,22,271,,84,22,023,24*6D
$GLGSV,3,3,11,85,34,091,25,86,12,134,,,,,31*69
$GNGLL,5318.52136,N,00613.49683,W,172130.00,A,A*6B
$GNRMC,172131.00,A,5318.52119,N,00613.49685,W,0.275,,251122,,,A*7F
$GNVTG,,T,,M,0.275,N,0.510,K,A*39
$GNGGA,172131.00,5318.52119,N,00613.49685,W,1,05,3.77,32.3,M,52.8,M,,*6F
$GNGSA,A,3,22,06,19,,,,,,,,,,5.06,3.77,3.37*15
$GNGSA,A,3,67,75,,,,,,,,,,,5.06,3.77,3.37*18
$GPGSV,2,1,05,01,,,09,06,13,070,24,19,24,043,26,22,28,311,35*40
$GPGSV,2,2,05,29,07,184,08*45
$GLGSV,3,1,11,65,07,197,,66,44,244,,67,35,317,37,68,00,351,*61
$GLGSV,3,2,11,75,42,068,26,76,69,304,32,77,22,271,,84,22,023,24*6D
$GLGSV,3,3,11,85,34,091,25,86,12,134,,,,,31*69
$GNGLL,5318.52119,N,00613.49685,W,172131.00,A,A*61
$GNRMC,172132.00,A,5318.52099,N,00613.49691,W,0.448,,251122,,,A*78
$GNVTG,,T,,M,0.448,N,0.829,K,A*36
$GNGGA,172132.00,5318.52099,N,00613.49691,W,1,05,3.77,31.8,M,52.8,M,,*68
$GNGSA,A,3,22,06,19,,,,,,,,,,5.06,3.77,3.37*15
$GNGSA,A,3,67,75,,,,,,,,,,,5.06,3.77,3.37*18
$GPGSV,2,1,05,01,,,09,06,13,070,25,19,24,043,26,22,28,311,35*41
$GPGSV,2,2,05,29,07,184,08*45
$GLGSV,3,1,11,65,07,197,,66,44,244,,67,35,317,37,68,00,351,*61
$GLGSV,3,2,11,75,42,068,26,76,69,304,33,77,22,271,,84,22,023,24*6C
$GLGSV,3,3,11,85,34,091,25,86,12,134,,,,,30*68
$GNGLL,5318.52099,N,00613.49691,W,172132.00,A,A*6E
$GNRMC,172133.00,A,5318.52081,N,00613.49694,W,0.073,,251122,,,A*79
$GNVTG,,T,,M,0.073,N,0.135,K,A*3E
$GNGGA,172133.00,5318.52081,N,00613.49694,W,1,05,3.77,31.2,M,52.8,M,,*6F
$GNGSA,A,3,22,06,19,,,,,,,,,,5.06,3.77,3.37*15
$GNGSA,A,3,67,75,,,,,,,,,,,5.06,3.77,3.37*18
$GPGSV,2,1,05,01,,,08,06,13,070,25,19,24,043,26,22,28,311,35*40
$GPGSV,2,2,05,29,07,184,08*45
$GLGSV,3,1,11,65,07,197,,66,44,244,,67,35,317,37,68,00,351,*61
$GLGSV,3,2,11,75,42,068,26,76,69,304,32,77,22,271,,84,22,023,23*6A
$GLGSV,3,3,11,85,34,091,26,86,12,134,,,,,30*6B
$GNGLL,5318.52081,N,00613.49694,W,172133.00,A,A*63
$GNRMC,172134.00,A,5318.52071,N,00613.49699,W,0.082,,251122,,,A*72
$GNVTG,,T,,M,0.082,N,0.153,K,A*30
$GNGGA,172134.00,5318.52071,N,00613.49699,W,1,05,3.77,30.6,M,52.8,M,,*6F
$GNGSA,A,3,22,06,19,,,,,,,,,,5.06,3.77,3.37*15
$GNGSA,A,3,67,75,,,,,,,,,,,5.06,3.77,3.37*18
$GPGSV,2,1,05,01,,,08,06,13,070,26,19,24,043,26,22,28,311,35*43
$GPGSV,2,2,05,29,07,184,08*45
$GLGSV,3,1,11,65,07,197,,66,44,244,,67,35,317,37,68,00,351,*61
$GLGSV,3,2,11,75,42,068,26,76,69,304,33,77,22,271,,84,22,023,23*6B
$GLGSV,3,3,11,85,34,091,26,86,12,134,,,,,30*6B
$GNGLL,5318.52071,N,00613.49699,W,172134.00,A,A*66
$GNRMC,172135.00,A,5318.52063,N,00613.49704,W,0.179,,251122,,,A*70
$GNVTG,,T,,M,0.179,N,0.332,K,A*30
$GNGGA,172135.00,5318.52063,N,00613.49704,W,1,05,3.77,30.0,M,52.8,M,,*6E
$GNGSA,A,3,22,06,19,,,,,,,,,,5.06,3.77,3.37*15
$GNGSA,A,3,67,75,,,,,,,,,,,5.06,3.77,3.37*18
$GPGSV,1,1,04,06,13,070,26,19,24,043,25,22,28,311,35,29,07,184,*7A
$GLGSV,3,1,11,65,07,197,,66,44,244,,67,35,317,37,68,00,351,*61
$GLGSV,3,2,11,75,42,068,26,76,69,304,32,77,22,271,,84,22,023,23*6A
$GLGSV,3,3,11,85,34,091,26,86,12,134,,,,,30*6B
$GNGLL,5318.52063,N,00613.49704,W,172135.00,A,A*61
$GNRMC,172136.00,A,5318.52064,N,00613.49710,W,0.063,,251122,,,A*7B
$GNVTG,,T,,M,0.063,N,0.117,K,A*3F
$GNGGA,172136.00,5318.52064,N,00613.49710,W,1,05,3.77,29.4,M,52.8,M,,*63
$GNGSA,A,3,22,06,19,,,,,,,,,,5.06,3.77,3.38*1A
$GNGSA,A,3,67,75,,,,,,,,,,,5.06,3.77,3.38*17
$GPGSV,1,1,04,06,13,070,26,19,24,043,25,22,28,311,35,29,07,184,*7A
$GLGSV,3,1,11,65,07,197,,66,44,244,,67,35,317,37,68,00,351,*61
$GLGSV,3,2,11,75,42,068,26,76,69,304,32,77,22,271,,84,22,023,22*6B
$GLGSV,3,3,11,85,34,091,26,86,12,134,,,,,29*63
$GNGLL,5318.52064,N,00613.49710,W,172136.00,A,A*60
$GNRMC,172137.00,A,5318.52071,N,00613.49714,W,0.176,,251122,,,A*7F
$GNVTG,,T,,M,0.176,N,0.325,K,A*39
$GNGGA,172137.00,5318.52071,N,00613.49714,W,1,05,3.77,28.8,M,52.8,M,,*6F
$GNGSA,A,3,22,06,19,,,,,,,,,,5.06,3.77,3.38*1A
$GNGSA,A,3,67,75,,,,,,,,,,,5.06,3.77,3.38*17
$GPGSV,2,1,05,06,13,070,26,19,24,043,24,22,28,311,34,29,07,184,*78
$GPGSV,2,2,05,31,07,290,*42
$GLGSV,3,1,11,65,07,197,,66,44,244,,67,35,317,37,68,00,351,*61
$GLGSV,3,2,11,75,42,068,25,76,69,304,32,77,22,271,,84,22,023,22*68
$GLGSV,3,3,11,85,34,091,27,86,12,134,,,,,29*62
$GNGLL,5318.52071,N,00613.49714,W,172137.00,A,A*61
$GNRMC,172138.00,A,5318.52094,N,00613.49714,W,0.852,,251122,,,A*74
$GNVTG,,T,,M,0.852,N,1.577,K,A*36
$GNGGA,172138.00,5318.52094,N,00613.49714,W,1,05,3.77,28.2,M,52.8,M,,*61
$GNGSA,A,3,22,06,19,,,,,,,,,,5.06,3.77,3.38*1A
$GNGSA,A,3,67,75,,,,,,,,,,,5.06,3.77,3.38*17
$GPGSV,2,1,05,06,13,070,26,19,24,043,24,22,28,311,34,29,07,184,*78
$GPGSV,2,2,05,31,07,290,*42
$GLGSV,3,1,11,65,07,197,,66,44,244,,67,35,317,37,68,00,351,*61
$GLGSV,3,2,11,75,42,068,25,76,69,304,32,77,22,271,,84,22,023,22*68
$GLGSV,3,3,11,85,34,091,27,86,12,134,,,,,29*62
$GNGLL,5318.52094,N,00613.49714,W,172138.00,A,A*65
$GNRMC,172139.00,A,5318.52261,N,00613.49736,W,0.812,,251122,,,A*79
$GNVTG,,T,,M,0.812,N,1.504,K,A*36
$GNGGA,172139.00,5318.52261,N,00613.49736,W,1,06,3.44,24.5,M,52.8,M,,*60
$GNGSA,A,3,22,06,19,,,,,,,,,,4.50,3.44,2.90*1B
$GNGSA,A,3,67,76,75,,,,,,,,,,4.50,3.44,2.90*17
$GPGSV,2,1,05,06,13,070,27,19,24,043,24,22,28,311,34,29,07,184,*79
$GPGSV,2,2,05,31,07,290,*42
$GLGSV,3,1,11,65,07,197,,66,44,244,,67,35,317,37,68,00,351,*61
$GLGSV,3,2,11,75,42,068,26,76,69,305,32,77,22,271,,84,22,023,22*6A
$GLGSV,3,3,11,85,34,091,26,86,12,134,,,,,29*63
$GNGLL,5318.52261,N,00613.49736,W,172139.00,A,A*6C
$GNRMC,172140.00,A,5318.52302,N,00613.49742,W,0.589,,251122,,,A*7F
$GNVTG,,T,,M,0.589,N,1.091,K,A*30
$GNGGA,172140.00,5318.52302,N,00613.49742,W,1,06,3.44,23.4,M,52.8,M,,*6F
$GNGSA,A,3,22,06,19,,,,,,,,,,4.50,3.44,2.90*1B
$GNGSA,A,3,67,76,75,,,,,,,,,,4.50,3.44,2.90*17
$GPGSV,2,1,05,06,13,070,26,19,24,043,24,22,28,311,34,29,07,184,*78
$GPGSV,2,2,05,31,07,290,*42
$GLGSV,3,1,11,65,07,197,,66,44,244,,67,35,317,38,68,00,351,*6E
$GLGSV,3,2,11,75,42,068,26,76,69,305,32,77,22,271,,84,22,023,22*6A
$GLGSV,3,3,11,85,34,091,26,86,12,134,,,,,29*63
$GNGLL,5318.52302,N,00613.49742,W,172140.00,A,A*65
$GNRMC,172141.00,A,5318.52308,N,00613.49746,W,0.248,,251122,,,A*7A
$GNVTG,,T,,M,0.248,N,0.459,K,A*3B
$GNGGA,172141.00,5318.52308,N,00613.49746,W,1,06,3.44,22.9,M,52.8,M,,*6C
$GNGSA,A,3,22,06,19,,,,,,,,,,4.50,3.44,2.90*1B
$GNGSA,A,3,67,76,75,,,,,,,,,,4.50,3.44,2.90*17
$GPGSV,2,1,05,06,13,070,27,19,24,043,25,22,28,311,34,29,07,184,*78
$GPGSV,2,2,05,31,07,290,*42
$GLGSV,3,1,11,65,07,197,,66,44,244,,67,35,317,38,68,00,351,*6E
$GLGSV,3,2,11,75,42,068,27,76,69,305,32,77,22,271,,84,22,023,22*6B
$GLGSV,3,3,11,85,34,091,26,86,12,134,,,,,29*63
$GNGLL,5318.52308,N,00613.49746,W,172141.00,A,A*6A
$GNRMC,172142.00,A,5318.52311,N,00613.49743,W,0.080,,251122,,,A*72
$GNVTG,,T,,M,0.080,N,0.148,K,A*38
$GNGGA,172142.00,5318.52311,N,00613.49743,W,1,06,3.44,22.8,M,52.8,M,,*63
$GNGSA,A,3,22,06,19,,,,,,,,,,4.51,3.44,2.90*1A
$GNGSA,A,3,67,76,75,,,,,,,,,,4.51,3.44,2.90*16
$GPGSV,2,1,05,06,13,070,27,19,24,043,25,22,28,311,34,29,07,184,*78
$GPGSV,2,2,05,31,07,290,*42
$GLGSV,3,1,11,65,07,197,,66,44,244,,67,35,317,38,68,00,351,*6E
$GLGSV,3,2,11,75,42,068,27,76,69,305,32,77,22,271,,84,22,023,22*6B
$GLGSV,3,3,11,85,34,091,26,86,12,134,,,,,28*62
$GNGLL,5318.52311,N,00613.49743,W,172142.00,A,A*64
$GNRMC,172143.00,A,5318.52328,N,00613.49749,W,0.078,,251122,,,A*74
$GNVTG,,T,,M,0.078,N,0.145,K,A*32
$GNGGA,172143.00,5318.52328,N,00613.49749,W,1,06,3.45,22.8,M,52.8,M,,*63
$GNGSA,A,3,22,06,19,,,,,,,,,,4.51,3.45,2.91*1A
$GNGSA,A,3,67,76,75,,,,,,,,,,4.51,3.45,2.91*16
$GPGSV,2,1,05,06,13,070,28,19,24,043,23,22,28,311,34,29,07,184,*71
$GPGSV,2,2,05,31,07,290,*42
$GLGSV,3,1,11,65,07,197,,66,44,244,,67,35,317,38,68,00,351,*6E
$GLGSV,3,2,11,75,42,068,26,76,69,305,32,77,22,271,,84,22,022,22*6B
$GLGSV,3,3,11,85,34,091,26,86,12,134,,,,,28*62
$GNGLL,5318.52328,N,00613.49749,W,172143.00,A,A*65
$GNRMC,172144.00,A,5318.52350,N,00613.49760,W,0.531,,251122,,,A*7F
$GNVTG,,T,,M,0.531,N,0.984,K,A*3F
$GNGGA,172144.00,5318.52350,N,00613.49760,W,1,06,3.45,22.6,M,52.8,M,,*6E
$GNGSA,A,3,22,06,19,,,,,,,,,,4.51,3.45,2.91*1A
$GNGSA,A,3,67,76,75,,,,,,,,,,4.51,3.45,2.91*16
$GPGSV,2,1,05,06,13,070,28,19,24,043,23,22,28,311,34,29,07,184,*71
$GPGSV,2,2,05,31,07,290,*42
$GLGSV,3,1,11,65,07,197,,66,44,244,,67,35,317,38,68,00,351,*6E
$GLGSV,3,2,11,75,42,068,26,76,69,305,32,77,22,271,,84,22,022,22*6B
$GLGSV,3,3,11,85,35,091,25,86,12,134,,,,,28*60
$GNGLL,5318.52350,N,00613.49760,W,172144.00,A,A*66
$GNRMC,172145.00,A,5318.52365,N,00613.49774,W,0.674,,251122,,,A*7F
$GNVTG,,T,,M,0.674,N,1.249,K,A*36
$GNGGA,172145.00,5318.52365,N,00613.49774,W,1,06,3.45,22.3,M,52.8,M,,*69
$GNGSA,A,3,22,06,19,,,,,,,,,,4.51,3.45,2.91*1A
$GNGSA,A,3,67,76,75,,,,,,,,,,4.51,3.45,2.91*16
$GPGSV,2,1,05,06,13,070,27,19,24,043,23,22,28,311,34,29,07,184,*7E
$GPGSV,2,2,05,31,07,290,*42
$GLGSV,3,1,11,65,07,197,,66,44,244,,67,35,317,37,68,00,351,*61
$GLGSV,3,2,11,75,42,068,25,76,69,305,32,77,22,271,,84,22,022,22*68
$GLGSV,3,3,11,85,35,091,25,86,12,133,,,,,28*67
$GNGLL,5318.52365,N,00613.49774,W,172145.00,A,A*64
$GNRMC,172146.00,A,5318.52371,N,00613.49780,W,0.368,,251122,,,A*7A
$GNVTG,,T,,M,0.368,N,0.682,K,A*3C
$GNGGA,172146.00,5318.52371,N,00613.49780,W,1,06,3.45,22.4,M,52.8,M,,*63
$GNGSA,A,3,22,06,19,,,,,,,,,,4.51,3.45,2.91*1A
$GNGSA,A,3,67,76,75,,,,,,,,,,4.51,3.45,2.91*16
$GPGSV,2,1,05,06,13,070,28,19,24,043,24,22,28,311,34,29,07,184,*76
$GPGSV,2,2,05,31,07,290,*42
$GLGSV,3,1,11,65,07,197,,66,44,244,,67,35,317,37,68,00,351,*61
$GLGSV,3,2,11,75,42,068,25,76,69,305,32,77,22,271,,84,22,022,22*68
$GLGSV,3,3,11,85,35,091,25,86,12,133,,,,,28*67
$GNGLL,5318.52371,N,00613.49780,W,172146.00,A,A*69
$GNRMC,172147.00,A,5318.52383,N,00613.49787,W,0.099,,251122,,,A*7C
$GNVTG,,T,,M,0.099,N,0.183,K,A*37
$GNGGA,172147.00,5318.52383,N,00613.49787,W,1,06,3.45,22.3,M,52.8,M,,*6F
$GNGSA,A,3,22,06,19,,,,,,,,,,4.51,3.45,2.91*1A
$GNGSA,A,3,67,76,75,,,,,,,,,,4.51,3.45,2.91*16
$GPGSV,2,1,05,06,13,070,27,19,24,043,24,22,28,311,35,29,07,184,*78
$GPGSV,2,2,05,31,07,290,*42
$GLGSV,3,1,11,65,07,197,,66,44,244,,67,35,317,37,68,00,351,*61
$GLGSV,3,2,11,75,42,068,25,76,69,305,33,77,22,271,,84,22,022,22*69
$GLGSV,3,3,11,85,35,091,24,86,12,133,,,,,28*66
$GNGLL,5318.52383,N,00613.49787,W,172147.00,A,A*62
$GNRMC,172148.00,A,5318.52390,N,00613.49794,W,0.146,,251122,,,A*70
$GNVTG,,T,,M,0.146,N,0.270,K,A*3B
$GNGGA,172148.00,5318.52390,N,00613.49794,W,1,06,3.45,22.4,M,52.8,M,,*67
$GNGSA,A,3,22,06,19,,,,,,,,,,4.51,3.45,2.91*1A
$GNGSA,A,3,67,76,75,,,,,,,,,,4.51,3.45,2.91*16
$GPGSV,2,1,05,06,13,070,27,19,24,043,23,22,28,311,34,29,07,184,*7E
$GPGSV,2,2,05,31,07,290,*42
$GLGSV,3,1,11,65,07,197,,66,44,244,,67,35,317,37,68,00,351,*61
$GLGSV,3,2,11,75,42,068,25,76,69,305,32,77,22,271,,84,22,022,22*68
$GLGSV,3,3,11,85,35,091,23,86,12,133,,,,,29*60
$GNGLL,5318.52390,N,00613.49794,W,172148.00,A,A*6D
$GNRMC,172149.00,A,5318.52392,N,00613.49802,W,0.252,,251122,,,A*75
$GNVTG,,T,,M,0.252,N,0.467,K,A*3D
$GNGGA,172149.00,5318.52392,N,00613.49802,W,1,06,3.45,22.4,M,52.8,M,,*64
$GNGSA,A,3,22,06,19,,,,,,,,,,4.52,3.45,2.91*19
$GNGSA,A,3,67,76,75,,,,,,,,,,4.52,3.45,2.91*15
$GPGSV,2,1,05,06,13,070,27,19,24,043,23,22,28,311,34,29,07,184,*7E
$GPGSV,2,2,05,31,07,290,*42
$GLGSV,3,1,11,65,07,197,,66,44,244,,67,35,317,37,68,00,351,*61
$GLGSV,3,2,11,75,42,068,24,76,69,305,33,77,22,271,,84,22,022,22*68
$GLGSV,3,3,11,85,35,091,22,86,12,133,,,,,29*61
$GNGLL,5318.52392,N,00613.49802,W,172149.00,A,A*6E
$GNRMC,172150.00,A,5318.52395,N,00613.49805,W,0.502,,251122,,,A*7F
$GNVTG,,T,,M,0.502,N,0.930,K,A*30
$GNGGA,172150.00,5318.52395,N,00613.49805,W,1,06,3.45,22.3,M,52.8,M,,*6B
$GNGSA,A,3,22,06,19,,,,,,,,,,4.52,3.45,2.91*19
$GNGSA,A,3,67,76,75,,,,,,,,,,4.52,3.45,2.91*15
$GPGSV,2,1,05,06,13,070,27,19,24,043,23,22,28,311,34,29,07,184,*7E
$GPGSV,2,2,05,31,07,290,*42
$GLGSV,3,1,11,65,07,197,,66,44,244,,67,35,317,37,68,00,351,*61
$GLGSV,3,2,11,75,42,068,23,76,69,305,32,77,22,271,,84,22,022,22*6E
$GLGSV,3,3,11,85,35,091,21,86,12,133,,,,,29*62
$GNGLL,5318.52395,N,00613.49805,W,172150.00,A,A*66
$GNRMC,172151.00,A,5318.52411,N,00613.49801,W,0.441,,251122,,,A*77
$GNVTG,,T,,M,0.441,N,0.817,K,A*32
$GNGGA,172151.00,5318.52411,N,00613.49801,W,1,06,3.45,22.3,M,52.8,M,,*65
$GNGSA,A,3,22,06,19,,,,,,,,,,4.52,3.45,2.91*19
$GNGSA,A,3,67,76,75,,,,,,,,,,4.52,3.45,2.91*15
$GPGSV,2,1,05,06,13,070,27,19,24,043,23,22,28,311,34,29,07,184,*7E
$GPGSV,2,2,05,31,07,290,*42
$GLGSV,3,1,11,65,07,197,,66,44,244,,67,35,317,37,68,00,351,*61
$GLGSV,3,2,11,75,42,068,23,76,69,305,32,77,22,271,,84,22,022,22*6E
$GLGSV,3,3,11,85,35,091,21,86,12,133,,,,,29*62
$GNGLL,5318.52411,N,00613.49801,W,172151.00,A,A*68
$GNRMC,172152.00,A,5318.52425,N,00613.49798,W,0.189,,251122,,,A*7D
$GNVTG,,T,,M,0.189,N,0.350,K,A*3B
$GNGGA,172152.00,5318.52425,N,00613.49798,W,1,06,3.46,22.5,M,52.8,M,,*6B
$GNGSA,A,3,22,06,19,,,,,,,,,,4.52,3.46,2.91*1A
$GNGSA,A,3,67,76,75,,,,,,,,,,4.52,3.46,2.91*16
$GPGSV,2,1,05,06,13,070,27,19,24,043,23,22,28,311,34,29,07,184,*7E
$GPGSV,2,2,05,31,07,290,*42
$GLGSV,3,1,11,65,07,197,,66,44,244,,67,35,317,37,68,00,351,*61
$GLGSV,3,2,11,75,42,068,23,76,69,305,32,77,22,271,,84,22,022,21*6D
$GLGSV,3,3,11,85,35,091,21,86,12,133,,,,,29*62
$GNGLL,5318.52425,N,00613.49798,W,172152.00,A,A*63
$GNRMC,172153.00,A,5318.52417,N,00613.49802,W,0.084,,251122,,,A*7D
$GNVTG,,T,,M,0.084,N,0.156,K,A*33
$GNGGA,172153.00,5318.52417,N,00613.49802,W,1,06,3.46,22.2,M,52.8,M,,*60
$GNGSA,A,3,22,06,19,,,,,,,,,,4.52,3.46,2.91*1A
$GNGSA,A,3,67,76,75,,,,,,,,,,4.52,3.46,2.91*16
$GPGSV,2,1,05,06,13,070,27,19,24,043,22,22,28,311,34,29,07,184,*7F
$GPGSV,2,2,05,31,07,290,*42
$GLGSV,3,1,11,65,07,197,,66,44,244,,67,35,317,37,68,00,351,*61
$GLGSV,3,2,11,75,42,068,23,76,69,305,32,77,22,271,,84,22,022,21*6D
$GLGSV,3,3,11,85,35,091,20,86,12,133,,,,,29*63
$GNGLL,5318.52417,N,00613.49802,W,172153.00,A,A*6F
$GNRMC,172154.00,A,5318.52418,N,00613.49802,W,0.146,,251122,,,A*7A
$GNVTG,,T,,M,0.146,N,0.271,K,A*3A
$GNGGA,172154.00,5318.52418,N,00613.49802,W,1,06,3.46,22.2,M,52.8,M,,*68
$GNGSA,A,3,22,06,19,,,,,,,,,,4.52,3.46,2.92*19
$GNGSA,A,3,67,76,75,,,,,,,,,,4.52,3.46,2.92*15
$GPGSV,2,1,05,06,13,070,27,19,24,043,23,22,28,311,34,29,07,184,*7E
$GPGSV,2,2,05,31,07,290,*42
$GLGSV,3,1,11,65,07,197,,66,44,244,,67,35,317,37,68,00,351,*61
$GLGSV,3,2,11,75,42,068,22,76,69,305,32,77,22,271,,84,22,022,21*6C
$GLGSV,3,3,11,85,35,091,19,86,12,133,,,,,29*69
$GNGLL,5318.52418,N,00613.49802,W,172154.00,A,A*67
$GNRMC,172155.00,A,5318.52409,N,00613.49804,W,0.385,,251122,,,A*70
$GNVTG,,T,,M,0.385,N,0.714,K,A*31
$GNGGA,172155.00,5318.52409,N,00613.49804,W,1,06,3.46,22.0,M,52.8,M,,*6D
$GNGSA,A,3,22,06,19,,,,,,,,,,4.52,3.46,2.92*19
$GNGSA,A,3,67,76,75,,,,,,,,,,4.52,3.46,2.92*15
$GPGSV,2,1,05,06,13,070,26,19,24,043,24,22,29,311,34,29,07,184,*79
$GPGSV,2,2,05,31,07,290,*42
$GLGSV,3,1,11,65,07,197,,66,44,244,,67,35,317,37,68,00,351,*61
$GLGSV,3,2,11,75,42,068,22,76,69,305,32,77,22,271,,84,22,022,22*6F
$GLGSV,3,3,11,85,35,091,18,86,12,133,,,,,29*68
$GNGLL,5318.52409,N,00613.49804,W,172155.00,A,A*60
$GNRMC,172156.00,A,5318.52411,N,00613.49800,W,0.497,,251122,,,A*7A
$GNVTG,,T,,M,0.497,N,0.921,K,A*3D
$GNGGA,172156.00,5318.52411,N,00613.49800,W,1,06,3.46,22.0,M,52.8,M,,*63
$GNGSA,A,3,22,06,19,,,,,,,,,,4.53,3.46,2.92*18
$GNGSA,A,3,67,76,75,,,,,,,,,,4.53,3.46,2.92*14
$GPGSV,2,1,05,06,13,070,26,19,24,043,25,22,29,311,34,29,07,184,*78
$GPGSV,2,2,05,31,07,290,*42
$GLGSV,3,1,11,65,07,197,,66,44,244,,67,35,317,37,68,00,351,*61
$GLGSV,3,2,11,75,42,068,21,76,69,305,32,77,22,271,,84,22,022,21*6F
$GLGSV,3,3,11,85,35,091,19,86,12,133,,,,,29*69
$GNGLL,5318.52411,N,00613.49800,W,172156.00,A,A*6E
$GNRMC,172157.00,A,5318.52389,N,00613.49806,W,0.358,,251122,,,A*7F
$GNVTG,,T,,M,0.358,N,0.662,K,A*31
$GNGGA,172157.00,5318.52389,N,00613.49806,W,1,06,3.46,21.7,M,52.8,M,,*66
$GNGSA,A,3,22,06,19,,,,,,,,,,4.53,3.46,2.92*18
$GNGSA,A,3,67,76,75,,,,,,,,,,4.53,3.46,2.92*14
$GPGSV,2,1,05,06,13,070,26,19,24,043,25,22,29,311,34,29,08,184,*77
$GPGSV,2,2,05,31,07,290,*42
$GLGSV,3,1,11,65,07,197,,66,44,244,,67,35,317,37,68,00,351,*61
$GLGSV,3,2,11,75,42,068,22,76,69,305,32,77,22,271,,84,22,022,22*6F
$GLGSV,3,3,11,85,35,091,19,86,12,133,,,,,29*69
$GNGLL,5318.52389,N,00613.49806,W,172157.00,A,A*6F
$GNRMC,172158.00,A,5318.52396,N,00613.49798,W,0.049,,251122,,,A*75
$GNVTG,,T,,M,0.049,N,0.091,K,A*38
$GNGGA,172158.00,5318.52396,N,00613.49798,W,1,06,3.46,21.8,M,52.8,M,,*60
$GNGSA,A,3,22,06,19,,,,,,,,,,4.53,3.46,2.92*18
$GNGSA,A,3,67,76,75,,,,,,,,,,4.53,3.46,2.92*14
$GPGSV,2,1,05,06,13,070,26,19,24,043,25,22,29,311,34,29,08,184,*77
$GPGSV,2,2,05,31,07,290,*42
$GLGSV,3,1,11,65,07,197,,66,44,244,,67,35,317,37,68,00,351,*61
$GLGSV,3,2,11,75,42,068,22,76,69,305,32,77,22,271,,84,22,022,22*6F
$GLGSV,3,3,11,85,35,091,21,86,12,133,,,,,29*62
$GNGLL,5318.52396,N,00613.49798,W,172158.00,A,A*66
$GNRMC,172159.00,A,5318.52389,N,00613.49799,W,0.129,,251122,,,A*7C
$GNVTG,,T,,M,0.129,N,0.239,K,A*3F
$GNGGA,172159.00,5318.52389,N,00613.49799,W,1,06,3.46,21.7,M,52.8,M,,*61
$GNGSA,A,3,22,06,19,,,,,,,,,,4.53,3.46,2.92*18
$GNGSA,A,3,67,76,75,,,,,,,,,,4.53,3.46,2.92*14
$GPGSV,2,1,05,06,13,070,27,19,24,043,24,22,29,311,34,29,08,184,*77
$GPGSV,2,2,05,31,07,290,*42
$GLGSV,3,1,11,65,07,197,,66,44,244,,67,35,317,37,68,00,351,*61
$GLGSV,3,2,11,75,42,068,23,76,69,305,32,77,22,271,,84,22,022,21*6D
$GLGSV,3,3,11,85,35,091,22,86,12,133,,,,,29*61
$GNGLL,5318.52389,N,00613.49799,W,172159.00,A,A*68
$GNRMC,172200.00,A,5318.52396,N,00613.49790,W,0.082,,251122,,,A*74
$GNVTG,,T,,M,0.082,N,0.152,K,A*31
$GNGGA,172200.00,5318.52396,N,00613.49790,W,1,06,3.46,21.8,M,52.8,M,,*66
$GNGSA,A,3,22,06,19,,,,,,,,,,4.53,3.46,2.92*18
$GNGSA,A,3,67,76,75,,,,,,,,,,4.53,3.46,2.92*14
$GPGSV,2,1,05,06,13,070,27,19,24,043,25,22,29,311,34,29,08,184,*76
$GPGSV,2,2,05,31,07,290,*42
$GLGSV,3,1,11,65,07,197,,66,44,244,,67,35,317,37,68,00,351,*61
$GLGSV,3,2,11,75,42,068,23,76,69,305,32,77,22,271,,84,22,022,22*6E
$GLGSV,3,3,11,85,35,091,22,86,12,133,,,,,28*60
$GNGLL,5318.52396,N,00613.49790,W,172200.00,A,A*60
$GNRMC,172201.00,A,5318.52390,N,00613.49790,W,0.418,,251122,,,A*74
$GNVTG,,T,,M,0.418,N,0.774,K,A*34
$GNGGA,172201.00,5318.52390,N,00613.49790,W,1,06,3.46,21.9,M,52.8,M,,*60
$GNGSA,A,3,22,06,19,,,,,,,,,,4.53,3.46,2.92*18
$GNGSA,A,3,67,76,75,,,,,,,,,,4.53,3.46,2.92*14
$GPGSV,2,1,05,06,13,070,27,19,24,043,25,22,29,311,34,29,08,184,*76
$GPGSV,2,2,05,31,07,290,*42
$GLGSV,3,1,11,65,07,197,,66,44,244,,67,35,317,37,68,00,351,*61
$GLGSV,3,2,11,75,42,068,24,76,69,305,31,77,22,271,,84,22,022,22*6A
$GLGSV,3,3,11,85,35,091,22,86,12,133,,,,,28*60
$GNGLL,5318.52390,N,00613.49790,W,172201.00,A,A*67
$GNRMC,172202.00,A,5318.52378,N,00613.49791,W,0.506,,251122,,,A*7E
$GNVTG,,T,,M,0.506,N,0.938,K,A*3C
$GNGGA,172202.00,5318.52378,N,00613.49791,W,1,06,3.47,21.8,M,52.8,M,,*64
$GNGSA,A,3,22,06,19,,,,,,,,,,4.53,3.47,2.92*19
$GNGSA,A,3,67,76,75,,,,,,,,,,4.53,3.47,2.92*15
$GPGSV,2,1,05,06,13,070,27,19,24,043,25,22,29,311,34,29,08,184,*76
$GPGSV,2,2,05,31,07,290,*42
$GLGSV,3,1,11,65,07,197,,66,44,244,,67,35,317,37,68,00,351,*61
$GLGSV,3,2,11,75,42,068,23,76,69,305,31,77,22,271,,84,22,022,21*6E
$GLGSV,3,3,11,85,35,091,22,86,12,133,,,,,28*60
$GNGLL,5318.52378,N,00613.49791,W,172202.00,A,A*63
$GNRMC,172203.00,A,5318.52371,N,00613.49791,W,0.222,,251122,,,A*77
$GNVTG,,T,,M,0.222,N,0.411,K,A*3B
$GNGGA,172203.00,5318.52371,N,00613.49791,W,1,06,3.47,21.8,M,52.8,M,,*6C
$GNGSA,A,3,22,06,19,,,,,,,,,,4.54,3.47,2.92*1E
$GNGSA,A,3,67,76,75,,,,,,,,,,4.54,3.47,2.92*12
$GPGSV,2,1,05,06,13,070,27,19,24,043,26,22,29,311,34,29,08,184,*75
