24,40,123,41,25,,,42*4A
$GPGSV,3,3,11,29,12,183,25,31,11,292,37,32,51,274,39*4D
$GLGSV,3,1,10,65,02,196,,66,40,239,41,67,37,311,35,68,04,350,*6C
$GLGSV,3,2,10,75,38,072,33,76,72,318,43,77,26,275,32,84,19,018,*68
$GLGSV,3,3,10,85,38,085,33,86,17,131,33*64
$GNGLL,5318.51772,N,00613.47162,W,173219.00,A,A*61
$GNRMC,173220.00,A,5318.51784,N,00613.47158,W,0.191,,251122,,,A*7C
$GNVTG,,T,,M,0.191,N,0.353,K,A*31
$GNGGA,173220.00,5318.51784,N,00613.47158,W,1,08,2.55,58.3,M,52.8,M,,*65
$GNGSA,A,3,12,22,19,32,,,,,,,,,3.97,2.55,3.03*19
$GNGSA,A,3,67,76,75,85,,,,,,,,,3.97,2.55,3.03*1C
$GPGSV,3,1,11,06,15,066,21,10,02,243,,11,06,099,35,12,78,080,38*73
$GPGSV,3,2,11,19,20,040,30,22,32,308,31,24,40,123,41,25,,,42*4B
$GPGSV,3,3,11,29,12,183,25,31,11,292,37,32,51,274,39*4D
$GLGSV,3,1,10,65,02,196,,66,40,239,41,67,37,311,35,68,04,350,*6C
$GLGSV,3,2,10,75,38,072,32,76,72,318,42,77,26,275,31,84,19,018,*6B
$GLGSV,3,3,10,85,38,085,31,86,17,131,33*66
$GNGLL,5318.51784,N,00613.47158,W,173220.00,A,A*6B
$GNRMC,173221.00,A,5318.51807,N,00613.47163,W,0.108,,251122,,,A*71
$GNVTG,,T,,M,0.108,N,0.200,K,A*36
$GNGGA,173221.00,5318.51807,N,00613.47163,W,1,08,2.55,58.4,M,52.8,M,,*6F
$GNGSA,A,3,12,22,19,32,,,,,,,,,3.97,2.55,3.03*19
$GNGSA,A,3,67,76,75,85,,,,,,,,,3.97,2.55,3.03*1C
$GPGSV,3,1,11,06,15,066,24,10,02,243,,11,06,099,35,12,78,080,36*78
$GPGSV,3,2,11,19,20,040,30,22,32,308,30,24,40,123,40,25,,,40*49
$GPGSV,3,3,11,29,12,183,25,31,11,292,37,32,51,274,37*43
$GLGSV,3,1,10,65,02,196,,66,40,239,41,67,37,311,35,68,04,350,*6C
$GLGSV,3,2,10,75,38,072,26,76,72,318,42,77,26,275,30,84,19,018,*6F
$GLGSV,3,3,10,85,38,085,25,86,17,131,33*63
$GNGLL,5318.51807,N,00613.47163,W,173221.00,A,A*66
$GNRMC,173222.00,A,5318.51790,N,00613.47092,W,0.033,,251122,,,A*75
$GNVTG,,T,,M,0.033,N,0.061,K,A*3A
$GNGGA,173222.00,5318.51790,N,00613.47092,W,1,09,2.55,56.7,M,52.8,M,,*6E
$GNGSA,A,3,12,22,06,19,32,,,,,,,,3.97,2.55,3.03*1F
$GNGSA,A,3,67,76,75,85,,,,,,,,,3.97,2.55,3.03*1C
$GPGSV,3,1,11,06,15,066,26,10,02,243,,11,06,099,31,12,78,080,38*70
$GPGSV,3,2,11,19,20,040,22,22,32,308,31,24,39,123,41,25,,,40*44
$GPGSV,3,3,11,29,12,183,23,31,11,292,35,32,51,274,40*47
$GLGSV,3,1,10,65,02,196,,66,40,239,40,67,37,311,38,68,04,350,*60
$GLGSV,3,2,10,75,38,072,34,76,72,318,42,77,26,275,32,84,19,018,*6E
$GLGSV,3,3,10,85,38,085,36,86,17,131,29*6A
$GNGLL,5318.51790,N,00613.47092,W,173222.00,A,A*6B
$GNRMC,173223.00,A,5318.51793,N,00613.47038,W,0.135,,251122,,,A*70
$GNVTG,,T,,M,0.135,N,0.250,K,A*3D
$GNGGA,173223.00,5318.51793,N,00613.47038,W,1,09,2.55,55.3,M,52.8,M,,*6B
$GNGSA,A,3,12,22,06,19,32,,,,,,,,3.97,2.55,3.03*1F
$GNGSA,A,3,67,76,75,85,,,,,,,,,3.97,2.55,3.03*1C
$GPGSV,3,1,11,06,15,066,31,10,02,243,,11,06,099,30,12,78,080,37*78
$GPGSV,3,2,11,19,20,040,30,22,32,308,35,24,39,123,42,25,,,40*40
$GPGSV,3,3,11,29,12,183,23,31,11,292,37,32,51,274,41*44
$GLGSV,3,1,10,65,02,196,,66,40,239,41,67,37,311,38,68,04,350,*61
$GLGSV,3,2,10,75,38,072,37,76,72,318,42,77,26,275,30,84,19,018,*6F
$GLGSV,3,3,10,85,38,085,34,86,17,131,31*61
$GNGLL,5318.51793,N,00613.47038,W,173223.00,A,A*69
$GNRMC,173224.00,A,5318.51804,N,00613.47026,W,0.070,,251122,,,A*79
$GNVTG,,T,,M,0.070,N,0.129,K,A*30
$GNGGA,173224.00,5318.51804,N,00613.47026,W,1,09,2.40,55.0,M,52.8,M,,*65
$GNGSA,A,3,12,22,06,19,32,,,,,,,,3.49,2.40,2.54*1B
$GNGSA,A,3,67,76,75,85,,,,,,,,,3.49,2.40,2.54*18
$GPGSV,3,1,11,06,15,066,31,10,02,243,,11,06,099,33,12,78,080,37*7B
$GPGSV,3,2,11,19,20,040,31,22,32,308,34,24,39,123,42,25,,,41*41
$GPGSV,3,3,11,29,12,183,23,31,11,292,36,32,51,274,42*46
$GLGSV,3,1,10,65,02,196,,66,40,239,39,67,37,311,38,68,04,350,*6E
$GLGSV,3,2,10,75,38,072,34,76,72,318,39,77,26,275,29,84,19,018,*68
$GLGSV,3,3,10,85,38,085,33,86,17,131,31*66
$GNGLL,5318.51804,N,00613.47026,W,173224.00,A,A*60
$GNRMC,173225.00,A,5318.51824,N,00613.47031,W,0.110,,251122,,,A*7B
$GNVTG,,T,,M,0.110,N,0.203,K,A*3C
$GNGGA,173225.00,5318.51824,N,00613.47031,W,1,09,2.40,55.2,M,52.8,M,,*62
$GNGSA,A,3,12,22,06,19,32,,,,,,,,3.49,2.40,2.54*1B
$GNGSA,A,3,67,76,75,85,,,,,,,,,3.49,2.40,2.54*18
$GPGSV,3,1,11,06,15,066,30,10,02,243,,11,06,099,32,12,78,080,37*7B
$GPGSV,3,2,11,19,20,040,28,22,32,308,32,24,39,123,42,25,,,38*41
$GPGSV,3,3,11,29,12,183,,31,11,292,36,32,51,274,40*45
$GLGSV,3,1,10,65,02,196,,66,40,239,41,67,37,311,36,68,04,350,*6F
$GLGSV,3,2,10,75,38,072,33,76,72,318,37,77,26,275,29,84,19,018,*61
$GLGSV,3,3,10,85,38,085,29,86,17,131,29*64
$GNGLL,5318.51824,N,00613.47031,W,173225.00,A,A*65
$GNRMC,173226.00,A,5318.51824,N,00613.47033,W,0.195,,251122,,,A*77
$GNVTG,,T,,M,0.195,N,0.361,K,A*34
$GNGGA,173226.00,5318.51824,N,00613.47033,W,1,09,2.40,55.8,M,52.8,M,,*69
$GNGSA,A,3,12,22,06,19,32,,,,,,,,3.49,2.40,2.54*1B
$GNGSA,A,3,67,76,75,85,,,,,,,,,3.49,2.40,2.54*18
$GPGSV,3,1,11,06,15,066,28,10,02,243,,11,06,099,31,12,78,080,38*7E
$GPGSV,3,2,11,19,20,040,28,22,32,308,26,24,39,123,39,25,,,38*48
$GPGSV,3,3,11,29,12,183,,31,11,292,29,32,51,274,37*4B
$GLGSV,3,1,10,65,02,196,,66,40,239,39,67,37,311,28,68,04,350,*6F
$GLGSV,3,2,10,75,38,072,29,76,72,318,35,77,26,275,28,84,19,018,*69
$GLGSV,3,3,10,85,38,085,30,86,17,131,27*62
$GNGLL,5318.51824,N,00613.47033,W,173226.00,A,A*64
$GNRMC,173227.00,A,5318.51816,N,00613.47027,W,0.089,,251122,,,A*7E
$GNVTG,,T,,M,0.089,N,0.164,K,A*3F
$GNGGA,173227.00,5318.51816,N,00613.47027,W,1,09,2.55,55.7,M,52.8,M,,*67
$GNGSA,A,3,12,22,06,19,32,,,,,,,,3.96,2.55,3.03*1E
$GNGSA,A,3,67,76,75,85,,,,,,,,,3.96,2.55,3.03*1D
$GPGSV,3,1,11,06,15,066,24,10,02,243,,11,06,099,30,12,78,080,35*7E
$GPGSV,3,2,11,19,20,040,29,22,32,308,26,24,39,123,41,25,,,38*46
$GPGSV,3,3,11,29,12,183,28,31,11,292,29,32,51,274,34*42
$GLGSV,3,1,10,65,02,196,,66,40,239,39,67,37,311,27,68,04,350,*60
$GLGSV,3,2,10,75,38,072,29,76,72,318,38,77,26,275,18,84,19,018,*67
$GLGSV,3,3,10,85,38,085,30,86,17,131,26*63
$GNGLL,5318.51816,N,00613.47027,W,173227.00,A,A*61
$GNRMC,173228.00,A,5318.51808,N,00613.47031,W,0.106,,251122,,,A*7F
$GNVTG,,T,,M,0.106,N,0.196,K,A*34
$GNGGA,173228.00,5318.51808,N,00613.47031,W,1,09,2.40,56.2,M,52.8,M,,*62
$GNGSA,A,3,12,22,06,19,32,,,,,,,,3.49,2.40,2.54*1B
$GNGSA,A,3,67,76,75,85,,,,,,,,,3.49,2.40,2.54*18
$GPGSV,3,1,11,06,15,066,23,10,02,243,,11,06,099,21,12,78,080,36*7A
$GPGSV,3,2,11,19,20,040,30,22,32,308,23,24,39,123,39,25,,,37*4B
$GPGSV,3,3,11,29,12,183,,31,11,292,29,32,51,274,37*4B
$GLGSV,3,1,10,65,02,196,,66,40,239,40,67,37,311,25,68,04,350,*6C
$GLGSV,3,2,10,75,38,072,32,76,72,318,37,77,26,275,19,84,19,018,*63
$GLGSV,3,3,10,85,38,085,29,86,17,131,25*68
$GNGLL,5318.51808,N,00613.47031,W,173228.00,A,A*66
$GNRMC,173229.00,A,5318.51803,N,00613.47020,W,0.031,,251122,,,A*70
$GNVTG,,T,,M,0.031,N,0.057,K,A*3D
$GNGGA,173229.00,5318.51803,N,00613.47020,W,1,09,2.55,56.2,M,52.8,M,,*6C
$GNGSA,A,3,12,22,06,19,32,,,,,,,,3.96,2.55,3.03*1E
$GNGSA,A,3,67,76,75,85,,,,,,,,,3.96,2.55,3.03*1D
$GPGSV,3,1,11,06,15,066,22,10,02,243,,11,06,099,21,12,78,080,37*7A
$GPGSV,3,2,11,19,20,040,30,22,32,308,24,24,39,123,42,25,,,36*41
$GPGSV,3,3,11,29,12,183,,31,11,292,27,32,51,274,37*45
$GLGSV,3,1,10,65,02,196,,66,40,239,37,67,37,311,28,68,04,350,*61
$GLGSV,3,2,10,75,38,072,31,76,72,318,37,77,26,275,21,84,19,018,*6B
$GLGSV,3,3,10,85,38,085,29,86,17,131,25*68
$GNGLL,5318.51803,N,00613.47020,W,173229.00,A,A*6C
$GNRMC,173230.00,A,5318.51800,N,00613.47006,W,0.160,,251122,,,A*7A
$GNVTG,,T,,M,0.160,N,0.297,K,A*36
$GNGGA,173230.00,5318.51800,N,00613.47006,W,1,09,2.55,56.1,M,52.8,M,,*60
$GNGSA,A,3,12,22,06,19,32,,,,,,,,3.96,2.55,3.03*1E
$GNGSA,A,3,67,76,75,85,,,,,,,,,3.96,2.55,3.03*1D
$GPGSV,3,1,11,06,15,066,25,10,02,243,,11,06,099,25,12,78,080,36*78
$GPGSV,3,2,11,19,20,040,29,22,32,308,21,24,39,123,41,25,,,37*4E
$GPGSV,3,3,11,29,12,183,,31,11,292,29,32,51,274,38*44
$GLGSV,3,1,10,65,02,196,,66,40,239,42,67,37,311,30,68,04,350,*6A
$GLGSV,3,2,10,75,38,072,32,76,72,318,36,77,26,275,23,84,19,018,*6B
$GLGSV,3,3,10,85,38,085,31,86,17,131,31*64
$GNGLL,5318.51800,N,00613.47006,W,173230.00,A,A*63
$GNRMC,173231.00,A,5318.51815,N,00613.46992,W,0.059,,251122,,,A*71
$GNVTG,,T,,M,0.059,N,0.108,K,A*38
$GNGGA,173231.00,5318.51815,N,00613.46992,W,1,12,1.26,55.2,M,52.8,M,,*6D
$GNGSA,A,3,25,12,22,06,19,32,24,31,,,,,1.99,1.26,1.54*17
$GNGSA,A,3,67,76,75,85,,,,,,,,,1.99,1.26,1.54*17
$GPGSV,3,1,11,06,15,066,26,10,02,243,,11,06,099,31,12,78,080,37*7F
$GPGSV,3,2,11,19,20,040,29,22,32,308,29,24,39,123,42,25,65,240,37*70
$GPGSV,3,3,11,29,12,183,,31,11,292,31,32,51,274,40*42
$GLGSV,3,1,10,65,02,196,,66,40,239,43,67,37,311,33,68,04,350,*68
$GLGSV,3,2,10,75,38,072,32,76,72,318,36,77,26,275,31,84,19,018,*68
$GLGSV,3,3,10,85,38,085,33,86,17,131,30*67
$GNGLL,5318.51815,N,00613.46992,W,173231.00,A,A*63
$GNRMC,173232.00,A,5318.51834,N,00613.46979,W,0.017,,251122,,,A*7E
$GNVTG,,T,,M,0.017,N,0.032,K,A*3A
$GNGGA,173232.00,5318.51834,N,00613.46979,W,1,12,1.26,54.7,M,52.8,M,,*6C
$GNGSA,A,3,25,12,22,06,19,32,24,31,,,,,1.99,1.26,1.54*17
$GNGSA,A,3,67,76,75,85,,,,,,,,,1.99,1.26,1.54*17
$GPGSV,3,1,11,06,15,066,28,10,02,243,,11,06,099,24,12,78,080,36*74
$GPGSV,3,2,11,19,20,040,28,22,32,308,30,24,39,123,42,25,65,240,38*76
$GPGSV,3,3,11,29,12,183,,31,11,292,31,32,51,274,39*4C
$GLGSV,3,1,10,65,02,196,,66,40,239,41,67,37,311,32,68,04,350,*6B
$GLGSV,3,2,10,75,38,072,32,76,72,318,38,77,26,275,30,84,19,018,*67
$GLGSV,3,3,10,85,38,085,32,86,17,131,30*66
$GNGLL,5318.51834,N,00613.46979,W,173232.00,A,A*66
$GNRMC,173233.00,A,5318.51847,N,00613.46962,W,0.023,,251122,,,A*76
$GNVTG,,T,,M,0.023,N,0.042,K,A*3A
$GNGGA,173233.00,5318.51847,N,00613.46962,W,1,12,1.24,53.8,M,52.8,M,,*69
$GNGSA,A,3,25,12,22,06,19,32,24,31,,,,,1.91,1.24,1.44*1C
$GNGSA,A,3,67,76,75,85,,,,,,,,,1.91,1.24,1.44*1C
$GPGSV,3,1,11,06,15,066,30,10,02,243,21,11,06,099,26,12,78,080,36*7C
$GPGSV,3,2,11,19,20,040,28,22,32,308,28,24,39,123,41,25,65,240,38*7C
$GPGSV,3,3,11,29,12,183,,31,11,292,32,32,51,274,41*40
$GLGSV,3,1,10,65,02,196,,66,40,239,43,67,37,311,31,68,04,350,*6A
$GLGSV,3,2,10,75,38,072,35,76,72,318,40,77,26,275,29,84,19,018,*67
$GLGSV,3,3,10,85,38,085,32,86,17,131,30*66
$GNGLL,5318.51847,N,00613.46962,W,173233.00,A,A*69
$GNRMC,173234.00,A,5318.51861,N,00613.46950,W,0.054,,251122,,,A*74
$GNVTG,,T,,M,0.054,N,0.099,K,A*3C
$GNGGA,173234.00,5318.51861,N,00613.46950,W,1,12,1.24,53.6,M,52.8,M,,*65
$GNGSA,A,3,25,12,22,06,19,32,24,31,,,,,1.91,1.24,1.44*1C
$GNGSA,A,3,67,76,75,85,,,,,,,,,1.91,1.24,1.44*1C
$GPGSV,3,1,11,06,15,066,32,10,02,243,20,11,06,099,27,12,78,080,37*7F
$GPGSV,3,2,11,19,20,040,29,22,32,308,30,24,39,123,42,25,65,240,38*77
$GPGSV,3,3,11,29,12,183,,31,11,292,29,32,51,274,41*4A
$GLGSV,3,1,11,65,02,196,,66,40,239,41,67,37,311,32,68,04,350,*6A
$GLGSV,3,2,11,75,38,072,34,76,72,318,41,77,26,275,30,84,19,018,*6E
$GLGSV,3,3,11,85,38,085,33,86,17,131,22,,,,32*64
$GNGLL,5318.51861,N,00613.46950,W,173234.00,A,A*6B
$GNRMC,173235.00,A,5318.51872,N,00613.46948,W,0.032,,251122,,,A*7E
$GNVTG,,T,,M,0.032,N,0.060,K,A*3A
$GNGGA,173235.00,5318.51872,N,00613.46948,W,1,12,1.24,53.3,M,52.8,M,,*6A
$GNGSA,A,3,25,12,22,06,19,32,24,31,,,,,1.91,1.24,1.45*1D
$GNGSA,A,3,67,76,75,85,,,,,,,,,1.91,1.24,1.45*1D
$GPGSV,3,1,11,06,15,066,32,10,02,243,20,11,06,099,27,12,78,080,37*7F
$GPGSV,3,2,11,19,20,040,29,22,32,308,31,24,39,123,42,25,65,240,38*76
$GPGSV,3,3,11,29,12,183,22,31,11,292,32,32,51,274,40*41
$GLGSV,3,1,11,65,02,196,,66,40,239,41,67,37,311,34,68,04,350,*6C
$GLGSV,3,2,11,75,38,072,34,76,72,318,41,77,26,275,30,84,19,018,*6E
$GLGSV,3,3,11,85,38,085,33,86,17,131,21,,,,33*66
$GNGLL,5318.51872,N,00613.46948,W,173235.00,A,A*61
$GNRMC,173236.00,A,5318.51888,N,00613.46929,W,0.008,,251122,,,A*76
$GNVTG,,T,,M,0.008,N,0.016,K,A*32
$GNGGA,173236.00,5318.51888,N,00613.46929,W,1,12,1.26,52.9,M,52.8,M,,*62
$GNGSA,A,3,25,12,22,06,19,32,24,31,,,,,1.99,1.26,1.54*17
$GNGSA,A,3,67,76,75,85,,,,,,,,,1.99,1.26,1.54*17
$GPGSV,3,1,11,06,15,066,32,10,02,243,20,11,06,099,27,12,78,080,35*7D
$GPGSV,3,2,11,19,20,040,30,22,32,308,30,24,39,123,41,25,65,240,38*7C
$GPGSV,3,3,11,29,12,183,22,31,11,292,29,32,51,274,40*4B
$GLGSV,3,1,11,65,02,196,,66,40,239,43,67,37,311,35,68,04,350,*6F
$GLGSV,3,2,11,75,38,072,35,76,72,318,41,77,26,275,29,84,19,018,*67
$GLGSV,3,3,11,85,38,085,33,86,17,131,22,,,,34*62
$GNGLL,5318.51888,N,00613.46929,W,173236.00,A,A*60
$GNRMC,173237.00,A,5318.51896,N,00613.46918,W,0.018,,251122,,,A*7B
$GNVTG,,T,,M,0.018,N,0.034,K,A*33
$GNGGA,173237.00,5318.51896,N,00613.46918,W,1,12,1.24,52.8,M,52.8,M,,*6D
$GNGSA,A,3,25,12,22,06,19,32,24,31,,,,,1.91,1.24,1.45*1D
$GNGSA,A,3,67,76,75,85,,,,,,,,,1.91,1.24,1.45*1D
$GPGSV,3,1,11,06,15,066,32,10,02,243,20,11,06,099,27,12,78,080,37*7F
$GPGSV,3,2,11,19,20,040,31,22,32,308,30,24,39,123,41,25,65,240,38*7D
$GPGSV,3,3,11,29,12,183,21,31,11,292,29,32,51,274,40*48
$GLGSV,3,1,11,65,02,196,,66,40,239,42,67,37,311,34,68,04,350,*6F
$GLGSV,3,2,11,75,38,072,35,76,72,318,41,77,26,275,29,84,19,018,19*6F
$GLGSV,3,3,11,85,38,085,33,86,17,131,23,,,,34*63
$GNGLL,5318.51896,N,00613.46918,W,173237.00,A,A*6C
$GNRMC,173238.00,A,5318.51917,N,00613.46910,W,0.110,,251122,,,A*7D
$GNVTG,,T,,M,0.110,N,0.204,K,A*3B
$GNGGA,173238.00,5318.51917,N,00613.46910,W,1,12,1.24,52.8,M,52.8,M,,*62
$GNGSA,A,3,25,12,22,06,19,32,24,31,,,,,1.91,1.24,1.45*1D
$GNGSA,A,3,67,76,75,85,,,,,,,,,1.91,1.24,1.45*1D
$GPGSV,3,1,11,06,15,066,31,10,02,243,21,11,06,099,33,12,78,080,37*78
$GPGSV,3,2,11,19,20,040,25,22,32,308,31,24,39,123,35,25,65,240,37*75
$GPGSV,3,3,11,29,12,183,31,31,11,292,29,32,51,274,39*47
$GLGSV,3,1,11,65,02,196,,66,40,239,42,67,37,311,35,68,04,350,*6E
$GLGSV,3,2,11,75,38,072,34,76,72,318,41,77,26,275,29,84,19,018,18*6F
$GLGSV,3,3,11,85,38,085,33,86,17,131,24,,,,34*64
$GNGLL,5318.51917,N,00613.46910,W,173238.00,A,A*63
$GNRMC,173239.00,A,5318.51928,N,00613.46940,W,0.028,,251122,,,A*7F
$GNVTG,,T,,M,0.028,N,0.052,K,A*30
$GNGGA,173239.00,5318.51928,N,00613.46940,W,1,12,1.04,52.3,M,52.8,M,,*63
$GNGSA,A,3,25,12,22,06,19,32,24,31,,,,,1.67,1.04,1.30*14
$GNGSA,A,3,67,76,77,75,85,66,,,,,,,1.67,1.04,1.30*14
$GPGSV,3,1,11,06,15,066,29,10,02,243,19,11,06,099,31,12,78,080,37*78
$GPGSV,3,2,11,19,20,040,31,22,32,308,31,24,39,123,41,25,65,240,39*7D
$GPGSV,3,3,11,29,12,183,22,31,11,292,36,32,51,274,38*4A
$GLGSV,3,1,11,65,02,196,,66,39,239,43,67,37,311,31,68,04,350,*65
$GLGSV,3,2,11,75,38,072,32,76,72,318,41,77,27,275,30,84,19,018,18*60
$GLGSV,3,3,11,85,38,085,34,86,17,131,27,,,,33*67
$GNGLL,5318.51928,N,00613.46940,W,173239.00,A,A*6B
$GNRMC,173240.00,A,5318.51951,N,00613.46942,W,0.018,,251122,,,A*7E
$GNVTG,,T,,M,0.018,N,0.034,K,A*33
$GNGGA,173240.00,5318.51951,N,00613.46942,W,1,12,1.01,51.9,M,52.8,M,,*6D
$GNGSA,A,3,25,12,22,06,19,32,24,31,,,,,1.65,1.01,1.30*13
$GNGSA,A,3,67,76,77,75,85,66,,,,,,,1.65,1.01,1.30*13
$GPGSV,3,1,11,06,15,066,28,10,02,243,19,11,06,099,26,12,78,080,36*7E
$GPGSV,3,2,11,19,20,040,30,22,32,308,35,24,39,123,41,25,65,240,39*78
$GPGSV,3,3,11,29,12,183,29,31,11,292,34,32,51,274,40*4C
$GLGSV,3,1,11,65,02,196,,66,39,239,43,67,37,311,39,68,04,350,*6D
$GLGSV,3,2,11,75,38,072,34,76,72,318,42,77,27,275,30,84,19,018,17*6A
$GLGSV,3,3,11,85,38,085,33,86,17,131,27,,,,35*66
$GNGLL,5318.51951,N,00613.46942,W,173240.00,A,A*69
$GNRMC,173241.00,A,5318.51963,N,00613.46958,W,0.060,,251122,,,A*7A
$GNVTG,,T,,M,0.060,N,0.112,K,A*39
$GNGGA,173241.00,5318.51963,N,00613.46958,W,1,12,1.02,52.0,M,52.8,M,,*6F
$GNGSA,A,3,25,12,22,06,19,32,24,31,,,,,1.66,1.02,1.30*13
$GNGSA,A,3,67,76,77,75,85,66,,,,,,,1.66,1.02,1.30*13
$GPGSV,3,1,11,06,15,066,29,10,02,243,20,11,06,099,27,12,78,080,36*74
$GPGSV,3,2,11,19,20,040,30,22,32,308,35,24,39,123,40,25,65,240,39*79
$GPGSV,3,3,11,29,12,183,21,31,11,292,34,32,51,274,40*44
$GLGSV,3,1,11,65,02,196,,66,39,239,44,67,38,311,37,68,04,350,*6B
$GLGSV,3,2,11,75,38,072,34,76,72,318,41,77,27,275,31,84,19,018,18*67
$GLGSV,3,3,11,85,38,085,33,86,17,131,32,,,,36*61
$GNGLL,5318.51963,N,00613.46958,W,173241.00,A,A*62
$GNRMC,173242.00,A,5318.51981,N,00613.46972,W,0.017,,251122,,,A*7D
$GNVTG,,T,,M,0.017,N,0.031,K,A*39
$GNGGA,173242.00,5318.51981,N,00613.46972,W,1,12,1.05,51.4,M,52.8,M,,*68
$GNGSA,A,3,25,12,22,06,19,32,24,31,,,,,1.76,1.05,1.41*13
$GNGSA,A,3,67,76,77,75,85,66,,,,,,,1.76,1.05,1.41*13
$GPGSV,3,1,11,06,15,066,29,10,02,243,20,11,06,099,27,12,78,080,37*75
$GPGSV,3,2,11,19,20,040,30,22,32,308,34,24,39,123,40,25,65,240,39*78
$GPGSV,3,3,11,29,12,183,,31,11,292,37,32,51,274,39*4A
$GLGSV,3,1,11,65,02,196,,66,39,239,44,67,38,311,37,68,05,350,*6A
$GLGSV,3,2,11,75,38,072,24,76,72,318,41,77,27,275,29,84,19,018,18*6F
$GLGSV,3,3,11,85,38,085,17,86,17,131,32,,,,25*65
$GNGLL,5318.51981,N,00613.46972,W,173242.00,A,A*65
$GNRMC,173243.00,A,5318.52001,N,00613.46976,W,0.037,,251122,,,A*78
$GNVTG,,T,,M,0.037,N,0.068,K,A*37
$GNGGA,173243.00,5318.52001,N,00613.46976,W,1,12,1.02,51.3,M,52.8,M,,*6F
$GNGSA,A,3,25,12,22,06,19,32,24,31,,,,,1.66,1.02,1.30*13
$GNGSA,A,3,67,76,77,75,85,66,,,,,,,1.66,1.02,1.30*13
$GPGSV,3,1,11,06,15,066,29,10,02,243,21,11,06,099,28,12,78,080,37*7B
$GPGSV,3,2,11,19,20,040,30,22,32,308,36,24,39,123,40,25,65,240,38*7B
$GPGSV,3,3,11,29,12,183,,31,11,292,29,32,51,274,39*45
$GLGSV,3,1,11,65,02,196,,66,39,239,45,67,38,311,38,68,05,350,*64
$GLGSV,3,2,11,75,38,072,35,76,72,318,40,77,27,275,28,84,19,018,15*62
$GLGSV,3,3,11,85,38,085,29,86,17,131,31,,,,35*6A
$GNGLL,5318.52001,N,00613.46976,W,173243.00,A,A*62
$GNRMC,173244.00,A,5318.52016,N,00613.46972,W,0.023,,251122,,,A*78
$GNVTG,,T,,M,0.023,N,0.043,K,A*3B
$GNGGA,173244.00,5318.52016,N,00613.46972,W,1,12,1.02,51.3,M,52.8,M,,*6A
$GNGSA,A,3,25,12,22,06,19,32,24,31,,,,,1.66,1.02,1.30*13
$GNGSA,A,3,67,76,77,75,85,66,,,,,,,1.66,1.02,1.30*13
$GPGSV,3,1,11,06,15,066,29,10,02,243,22,11,06,099,25,12,78,080,37*75
$GPGSV,3,2,11,19,20,040,30,22,32,308,33,24,39,123,38,25,65,240,39*70
$GPGSV,3,3,11,29,12,183,19,31,11,292,28,32,51,274,40*42
$GLGSV,3,1,11,65,02,196,,66,39,239,43,67,38,311,36,68,05,350,*6C
$GLGSV,3,2,11,75,38,072,34,76,72,318,40,77,27,275,28,84,19,018,14*62
$GLGSV,3,3,11,85,38,085,34,86,17,131,29,,,,35*6F
$GNGLL,5318.52016,N,00613.46972,W,173244.00,A,A*67
$GNRMC,173245.00,A,5318.52030,N,00613.46973,W,0.037,,251122,,,A*79
$GNVTG,,T,,M,0.037,N,0.069,K,A*36
$GNGGA,173245.00,5318.52030,N,00613.46973,W,1,12,1.09,51.3,M,52.8,M,,*65
$GNGSA,A,3,25,12,22,06,19,32,24,31,,,,,1.79,1.09,1.42*13
$GNGSA,A,3,67,76,77,75,85,66,,,,,,,1.79,1.09,1.42*13
$GPGSV,3,1,11,06,15,066,28,10,02,243,23,11,06,099,27,12,78,080,36*76
$GPGSV,3,2,11,19,20,040,30,22,32,308,30,24,39,123,39,25,65,240,39*72
$GPGSV,3,3,11,29,12,183,22,31,11,292,28,32,51,274,38*45
$GLGSV,3,1,11,65,02,196,,66,39,239,44,67,38,311,36,68,05,350,*6B
$GLGSV,3,2,11,75,38,072,34,76,72,318,40,77,27,275,28,84,19,018,15*63
$GLGSV,3,3,11,85,38,085,30,86,17,131,29,,,,35*6B
$GNGLL,5318.52030,N,00613.46973,W,173245.00,A,A*63
$GNRMC,173246.00,A,5318.52043,N,00613.46965,W,0.048,,251122,,,A*71
$GNVTG,,T,,M,0.048,N,0.089,K,A*30
$GNGGA,173246.00,5318.52043,N,00613.46965,W,1,12,1.01,51.1,M,52.8,M,,*6F
$GNGSA,A,3,25,12,22,06,19,32,24,31,,,,,1.65,1.01,1.30*13
$GNGSA,A,3,67,76,77,75,85,66,,,,,,,1.65,1.01,1.30*13
$GPGSV,3,1,11,06,15,066,27,10,02,243,25,11,06,099,19,12,78,080,37*73
$GPGSV,3,2,11,19,20,040,31,22,32,308,32,24,39,123,35,25,65,240,39*7D
$GPGSV,3,3,11,29,12,183,21,31,11,292,27,32,51,274,39*48
$GLGSV,3,1,11,65,02,196,,66,39,239,45,67,38,311,35,68,05,350,*69
$GLGSV,3,2,11,75,38,072,33,76,72,318,40,77,27,275,29,84,19,018,16*66
$GLGSV,3,3,11,85,38,085,34,86,17,131,29,,,,35*6F
$GNGLL,5318.52043,N,00613.46965,W,173246.00,A,A*63
$GNRMC,173247.00,A,5318.52063,N,00613.46967,W,0.020,,251122,,,A*7E
$GNVTG,,T,,M,0.020,N,0.037,K,A*3B
$GNGGA,173247.00,5318.52063,N,00613.46967,W,1,12,1.01,50.4,M,52.8,M,,*6A
$GNGSA,A,3,25,12,22,06,19,32,24,31,,,,,1.65,1.01,1.30*13
$GNGSA,A,3,67,76,77,75,85,66,,,,,,,1.65,1.01,1.30*13
$GPGSV,3,1,11,06,15,066,28,10,02,243,25,11,06,099,28,12,78,080,36*7F
$GPGSV,3,2,11,19,20,040,25,22,32,308,35,24,39,123,41,25,65,240,39*7C
$GPGSV,3,3,11,29,12,183,23,31,11,292,36,32,51,274,38*4B
$GLGSV,3,1,11,65,02,196,,66,39,239,44,67,38,311,37,68,05,350,*6A
$GLGSV,3,2,11,75,38,072,34,76,72,318,40,77,27,275,29,84,19,018,18*6F
$GLGSV,3,3,11,85,38,085,33,86,17,131,29,,,,35*68
$GNGLL,5318.52063,N,00613.46967,W,173247.00,A,A*62
$GNRMC,173248.00,A,5318.52074,N,00613.46969,W,0.030,,251122,,,A*78
$GNVTG,,T,,M,0.030,N,0.055,K,A*3E
$GNGGA,173248.00,5318.52074,N,00613.46969,W,1,12,1.01,50.5,M,52.8,M,,*6C
$GNGSA,A,3,25,12,22,06,19,32,24,31,,,,,1.65,1.01,1.30*13
$GNGSA,A,3,67,76,77,75,85,66,,,,,,,1.65,1.01,1.30*13
$GPGSV,3,1,11,06,15,066,27,10,02,243,25,11,06,099,28,12,78,080,36*70
$GPGSV,3,2,11,19,20,040,32,22,32,308,35,24,39,123,39,25,65,240,38*74
$GPGSV,3,3,11,29,12,183,24,31,11,292,32,32,51,274,38*48
$GLGSV,3,1,11,65,02,196,,66,39,239,44,67,38,311,37,68,05,350,*6A
$GLGSV,3,2,11,75,38,072,33,76,72,318,40,77,27,275,28,84,19,018,18*69
$GLGSV,3,3,11,85,38,085,33,86,17,131,29,,,,34*69
$GNGLL,5318.52074,N,00613.46969,W,173248.00,A,A*65
$GNRMC,173249.00,A,5318.52084,N,00613.46963,W,0.013,,251122,,,A*7D
$GNVTG,,T,,M,0.013,N,0.023,K,A*3E
$GNGGA,173249.00,5318.52084,N,00613.46963,W,1,12,1.03,50.4,M,52.8,M,,*6B
$GNGSA,A,3,25,12,22,06,19,32,24,31,,,,,1.74,1.03,1.40*16
$GNGSA,A,3,67,76,77,75,85,66,,,,,,,1.74,1.03,1.40*16
$GPGSV,3,1,11,06,15,066,27,10,02,243,25,11,06,099,28,12,78,080,36*70
$GPGSV,3,2,11,19,20,040,33,22,32,308,35,24,39,123,40,25,65,240,39*7A
$GPGSV,3,3,11,29,12,183,25,31,11,292,26,32,51,274,38*4C
$GLGSV,3,1,11,65,02,196,,66,39,239,45,67,38,311,37,68,05,350,*6B
$GLGSV,3,2,11,75,37,073,33,76,72,318,40,77,27,275,28,84,19,018,18*67
$GLGSV,3,3,11,85,38,085,32,86,17,131,31,,,,35*60
$GNGLL,5318.52084,N,00613.46963,W,173249.00,A,A*61
$GNRMC,173250.00,A,5318.52094,N,00613.46963,W,0.011,,251122,,,A*76
$GNVTG,,T,,M,0.011,N,0.020,K,A*3F
$GNGGA,173250.00,5318.52094,N,00613.46963,W,1,12,1.01,50.1,M,52.8,M,,*65
$GNGSA,A,3,25,12,22,06,19,32,24,31,,,,,1.65,1.01,1.30*13
$GNGSA,A,3,67,76,77,75,85,66,,,,,,,1.65,1.01,1.30*13
$GPGSV,3,1,11,06,15,066,27,10,02,243,25,11,06,099,29,12,78,080,36*71
$GPGSV,3,2,11,19,20,040,32,22,32,308,35,24,39,123,39,25,65,240,39*75
$GPGSV,3,3,11,29,12,183,25,31,11,292,34,32,51,274,38*4F
$GLGSV,3,1,11,65,02,196,,66,39,239,44,67,38,311,37,68,05,350,*6A
$GLGSV,3,2,11,75,37,073,33,76,72,320,40,77,27,275,30,84,19,018,18*65
$GLGSV,3,3,11,85,38,085,32,86,17,131,29,,,,35*69
$GNGLL,5318.52094,N,00613.46963,W,173250.00,A,A*68
$GNRMC,173251.00,A,5318.52105,N,00613.46960,W,0.013,,251122,,,A*7F
$GNVTG,,T,,M,0.013,N,0.025,K,A*38
$GNGGA,173251.00,5318.52105,N,00613.46960,W,1,12,1.01,50.1,M,52.8,M,,*6E
$GNGSA,A,3,25,12,22,06,19,32,24,31,,,,,1.65,1.01,1.30*13
$GNGSA,A,3,67,76,77,75,85,66,,,,,,,1.65,1.01,1.30*13
$GPGSV,3,1,11,06,15,066,27,10,02,243,24,11,06,099,30,12,78,080,36*78
$GPGSV,3,2,11,19,20,040,32,22,32,308,35,24,39,123,39,25,65,240,39*75
$GPGSV,3,3,11,29,12,183,25,31,11,292,31,32,51,274,38*4A
$GLGSV,3,1,11,65,02,196,,66,39,239,43,67,38,311,37,68,05,350,*6D
$GLGSV,3,2,11,75,37,073,33,76,72,320,40,77,27,275,30,84,19,018,18*65
$GLGSV,3,3,11,85,38,085,32,86,17,131,28,,,,35*68
$GNGLL,5318.52105,N,00613.46960,W,173251.00,A,A*63
$GNRMC,173252.00,A,5318.52117,N,00613.46946,W,0.031,,251122,,,A*7B
$GNVTG,,T,,M,0.031,N,0.058,K,A*32
$GNGGA,173252.00,5318.52117,N,00613.46946,W,1,12,1.01,50.2,M,52.8,M,,*69
$GNGSA,A,3,25,12,22,06,19,32,24,31,,,,,1.65,1.01,1.30*13
$GNGSA,A,3,67,76,77,75,85,66,,,,,,,1.65,1.01,1.30*13
$GPGSV,3,1,11,06,15,066,27,10,02,243,24,11,06,099,28,12,78,080,36*71
$GPGSV,3,2,11,19,20,040,28,22,32,308,31,24,39,123,39,25,65,240,38*7B
$GPGSV,3,3,11,29,12,183,25,31,11,292,22,32,51,274,38*48
$GLGSV,3,1,11,65,02,196,,66,39,239,43,67,38,311,37,68,05,350,*6D
$GLGSV,3,2,11,75,37,073,34,76,72,320,40,77,27,275,30,84,19,018,18*62
$GLGSV,3,3,11,85,38,085,33,86,17,131,30,,,,34*61
$GNGLL,5318.52117,N,00613.46946,W,173252.00,A,A*67
$GNRMC,173253.00,A,5318.52126,N,00613.46928,W,0.100,,251122,,,A*73
$GNVTG,,T,,M,0.100,N,0.186,K,A*33
$GNGGA,173253.00,5318.52126,N,00613.46928,W,1,12,1.04,50.3,M,52.8,M,,*66
$GNGSA,A,3,25,12,22,06,19,32,24,31,,,,,1.96,1.04,1.67*18
$GNGSA,A,3,67,76,77,75,85,66,,,,,,,1.96,1.04,1.67*18
$GPGSV,3,1,11,06,15,066,26,10,02,243,25,11,06,099,29,12,78,080,35*73
$GPGSV,3,2,11,19,20,040,30,22,32,308,31,24,39,123,38,25,65,240,39*72
$GPGSV,3,3,11,29,12,183,25,31,11,292,29,32,51,274,40*4C
$GLGSV,3,1,11,65,02,196,,66,39,239,44,67,38,311,36,68,05,350,*6B
$GLGSV,3,2,11,75,37,073,34,76,72,320,40,77,27,275,29,84,19,018,18*6A
$GLGSV,3,3,11,85,38,085,33,86,17,131,30,,,,35*60
$GNGLL,5318.52126,N,00613.46928,W,173253.00,A,A*6C
$GNRMC,173254.00,A,5318.52130,N,00613.46916,W,0.033,,251122,,,A*7F
$GNVTG,,T,,M,0.033,N,0.062,K,A*39
$GNGGA,173254.00,5318.52130,N,00613.46916,W,1,12,1.02,50.0,M,52.8,M,,*6E
$GNGSA,A,3,25,12,22,06,19,32,24,31,,,,,1.74,1.02,1.40*17
$GNGSA,A,3,67,76,77,75,85,66,,,,,,,1.74,1.02,1.40*17
$GPGSV,3,1,11,06,15,066,25,10,02,243,25,11,06,099,30,12,78,080,34*79
$GPGSV,3,2,11,19,20,040,34,22,32,308,31,24,39,123,38,25,65,240,38*77
$GPGSV,3,3,11,29,12,183,24,31,11,292,28,32,51,274,40*4C
$GLGSV,3,1,11,65,02,196,,66,39,239,44,67,38,311,35,68,05,350,*68
$GLGSV,3,2,11,75,37,073,36,76,72,320,40,77,27,275,30,84,19,018,18*60
$GLGSV,3,3,11,85,38,085,33,86,17,131,30,,,,36*63
$GNGLL,5318.52130,N,00613.46916,W,173254.00,A,A*61
$GNRMC,173255.00,A,5318.52129,N,00613.46913,W,0.004,,251122,,,A*77
$GNVTG,,T,,M,0.004,N,0.006,K,A*3F
$GNGGA,173255.00,5318.52129,N,00613.46913,W,1,12,1.02,49.9,M,52.8,M,,*63
$GNGSA,A,3,25,12,22,06,19,32,24,31,,,,,1.74,1.02,1.40*17
$GNGSA,A,3,67,76,77,75,85,66,,,,,,,1.74,1.02,1.40*17
$GPGSV,3,1,11,06,15,066,25,10,02,243,25,11,06,099,31,12,78,080,34*78
$GPGSV,3,2,11,19,20,040,34,22,32,308,31,24,39,123,38,25,65,240,38*77
$GPGSV,3,3,11,29,12,183,25,31,11,292,28,32,51,274,40*4D
$GLGSV,3,1,11,65,02,196,,66,39,239,44,67,38,311,34,68,05,350,*69
$GLGSV,3,2,11,75,37,073,35,76,72,320,40,77,27,275,31,84,19,018,17*6D
$GLGSV,3,3,11,85,38,085,32,86,17,131,30,,,,35*61
$GNGLL,5318.52129,N,00613.46913,W,173255.00,A,A*6D
$GNRMC,173256.00,A,5318.52128,N,00613.46915,W,0.033,,251122,,,A*77
$GNVTG,,T,,M,0.033,N,0.060,K,A*3B
$GNGGA,173256.00,5318.52128,N,00613.46915,W,1,12,1.02,49.7,M,52.8,M,,*69
$GNGSA,A,3,25,12,22,06,19,32,24,31,,,,,1.74,1.02,1.40*17
$GNGSA,A,3,67,76,77,75,85,66,,,,,,,1.74,1.02,1.40*17
$GPGSV,3,1,11,06,15,066,22,10,02,243,23,11,06,099,34,12,78,080,34*7C
$GPGSV,3,2,11,19,20,040,34,22,32,308,33,24,39,123,39,25,65,240,38*74
$GPGSV,3,3,11,29,12,183,26,31,11,292,34,32,51,274,38*4C
$GLGSV,3,1,11,65,02,196,,66,39,239,43,67,38,311,29,68,05,350,*62
$GLGSV,3,2,11,75,37,073,34,76,72,320,40,77,27,275,32,84,19,018,18*60
$GLGSV,3,3,11,85,38,085,31,86,17,131,29,,,,35*6A
$GNGLL,5318.52128,N,00613.46915,W,173256.00,A,A*69
$GNRMC,173257.00,A,5318.52142,N,00613.46901,W,0.026,,251122,,,A*7B
$GNVTG,,T,,M,0.026,N,0.048,K,A*35
$GNGGA,173257.00,5318.52142,N,00613.46901,W,1,12,1.14,49.3,M,52.8,M,,*62
$GNGSA,A,3,25,12,22,06,19,32,24,31,,,,,1.86,1.14,1.47*1A
$GNGSA,A,3,67,76,77,75,85,66,,,,,,,1.86,1.14,1.47*1A
$GPGSV,3,1,11,06,15,066,21,10,02,243,22,11,06,099,34,12,78,080,36*7C
$GPGSV,3,2,11,19,20,040,35,22,32,308,33,24,39,123,39,25,65,240,38*75
$GPGSV,3,3,11,29,12,183,27,31,11,292,33,32,51,274,38*4A
$GLGSV,3,1,11,65,02,196,,66,39,239,43,67,38,311,29,68,05,350,*62
$GLGSV,3,2,11,75,37,073,34,76,72,320,40,77,27,275,32,84,19,018,16*6E
$GLGSV,3,3,11,85,38,085,30,86,17,131,28,,,,35*6A
$GNGLL,5318.52142,N,00613.46901,W,173257.00,A,A*61
$GNRMC,173258.00,A,5318.52154,N,00613.46888,W,0.027,,251122,,,A*72
$GNVTG,,T,,M,0.027,N,0.050,K,A*3D
$GNGGA,173258.00,5318.52154,N,00613.46888,W,1,12,1.02,49.1,M,52.8,M,,*6F
$GNGSA,A,3,25,12,22,06,19,32,24,31,,,,,1.74,1.02,1.40*17
$GNGSA,A,3,67,76,77,75,85,66,,,,,,,1.74,1.02,1.40*17
$GPGSV,3,1,11,06,15,066,20,10,02,243,22,11,06,099,30,12,78,080,36*79
$GPGSV,3,2,11,19,20,040,35,22,32,308,31,24,39,123,39,25,65,240,38*77
$GPGSV,3,3,11,29,12,183,27,31,11,292,31,32,51,274,39*49
$GLGSV,3,1,11,65,02,196,,66,39,239,43,67,38,311,31,68,05,350,*6B
$GLGSV,3,2,11,75,37,073,34,76,72,320,40,77,27,275,32,84,19,018,16*6E
$GLGSV,3,3,11,85,38,085,31,86,17,131,28,,,,36*68
$GNGLL,5318.52154,N,00613.46888,W,173258.00,A,A*69
$GNRMC,173259.00,A,5318.52167,N,00613.46873,W,0.018,,251122,,,A*7B
$GNVTG,,T,,M,0.018,N,0.034,K,A*33
$GNGGA,173259.00,5318.52167,N,00613.46873,W,1,12,1.02,48.8,M,52.8,M,,*62
$GNGSA,A,3,25,12,22,06,19,32,24,31,,,,,1.74,1.02,1.40*17
$GNGSA,A,3,67,76,77,75,85,66,,,,,,,1.74,1.02,1.40*17
$GPGSV,3,1,11,06,15,066,20,10,02,243,23,11,06,099,32,12,78,080,36*7A
$GPGSV,3,2,11,19,20,040,35,22,32,308,31,24,39,123,38,25,65,240,39*77
$GPGSV,3,3,11,29,12,183,27,31,11,292,31,32,51,274,37*47
$GLGSV,3,1,11,65,02,196,,66,39,239,42,67,38,311,35,68,05,350,*6E
$GLGSV,3,2,11,75,37,073,34,76,72,320,40,77,27,275,32,84,19,018,15*6D
$GLGSV,3,3,11,85,38,084,32,86,17,131,28,,,,35*69
$GNGLL,5318.52167,N,00613.46873,W,173259.00,A,A*6C
$GNRMC,173300.00,A,5318.52176,N,00613.46858,W,0.018,,251122,,,A*7F
$GNVTG,,T,,M,0.018,N,0.033,K,A*34
$GNGGA,173300.00,5318.52176,N,00613.46858,W,1,12,1.04,48.7,M,52.8,M,,*6F
$GNGSA,A,3,25,12,22,06,19,32,24,31,,,,,1.96,1.04,1.66*19
$GNGSA,A,3,67,76,77,75,85,66,,,,,,,1.96,1.04,1.66*19
$GPGSV,3,1,11,06,15,066,20,10,02,243,23,11,06,099,31,12,78,080,37*78
$GPGSV,3,2,11,19,20,040,34,22,32,308,32,24,39,123,37,25,65,240,37*74
$GPGSV,3,3,11,29,12,183,28,31,11,292,24,32,51,274,39*42
$GLGSV,3,1,11,65,02,196,,66,39,239,42,67,38,311,35,68,05,350,*6E
$GLGSV,3,2,11,75,37,073,34,76,72,320,40,77,27,275,31,84,19,018,11*6A
$GLGSV,3,3,11,85,38,084,31,86,17,131,28,,,,35*6A
$GNGLL,5318.52176,N,00613.46858,W,173300.00,A,A*68
$GNRMC,173301.00,A,5318.52180,N,00613.46850,W,0.016,,251122,,,A*71
$GNVTG,,T,,M,0.016,N,0.030,K,A*39
$GNGGA,173301.00,5318.52180,N,00613.46850,W,1,12,1.02,48.4,M,52.8,M,,*6A
$GNGSA,A,3,25,12,22,06,11,19,32,24,31,,,,1.74,1.02,1.40*17
$GNGSA,A,3,67,76,77,75,85,66,,,,,,,1.74,1.02,1.40*17
$GPGSV,3,1,11,06,15,066,22,10,02,243,24,11,07,099,30,12,78,080,37*7D
$GPGSV,3,2,11,19,20,040,35,22,32,308,30,24,39,123,37,25,65,240,37*77
$GPGSV,3,3,11,29,12,183,27,31,11,292,35,32,51,274,39*4D
$GLGSV,3,1,11,65,02,196,,66,39,239,44,67,38,311,35,68,05,350,*68
$GLGSV,3,2,11,75,37,073,34,76,72,320,41,77,27,275,31,84,19,018,*6B
$GLGSV,3,3,11,85,38,084,32,86,17,131,28,,,,34*68
$GNGLL,5318.52180,N,00613.46850,W,173301.00,A,A*68
$GNRMC,173302.00,A,5318.52177,N,00613.46848,W,0.047,,251122,,,A*77
$GNVTG,,T,,M,0.047,N,0.088,K,A*3E
$GNGGA,173302.00,5318.52177,N,00613.46848,W,1,12,1.02,48.3,M,52.8,M,,*6F
$GNGSA,A,3,25,12,22,06,19,32,24,31,,,,,1.74,1.02,1.40*17
$GNGSA,A,3,67,76,77,75,85,66,,,,,,,1.74,1.02,1.40*17
$GPGSV,3,1,11,06,15,066,23,10,02,243,25,11,07,099,26,12,78,080,36*7B
$GPGSV,3,2,11,19,20,040,34,22,32,308,29,24,39,123,36,25,65,240,38*70
$GPGSV,3,3,11,29,12,183,27,31,11,292,35,32,51,274,39*4D
$GLGSV,3,1,11,65,02,196,,66,39,239,44,67,38,311,35,68,05,350,*68
$GLGSV,3,2,11,75,37,073,33,76,72,320,40,77,27,275,31,84,19,018,*6D
$GLGSV,3,3,11,85,38,084,32,86,17,131,28,,,,34*68
$GNGLL,5318.52177,N,00613.46848,W,173302.00,A,A*6A
$GNRMC,173303.00,A,5318.52167,N,00613.46844,W,0.019,,251122,,,A*70
$GNVTG,,T,,M,0.019,N,0.036,K,A*30
$GNGGA,173303.00,5318.52167,N,00613.46844,W,1,12,1.02,48.4,M,52.8,M,,*64
$GNGSA,A,3,25,12,22,06,11,19,32,24,31,,,,1.74,1.02,1.40*17
$GNGSA,A,3,67,76,77,75,85,66,,,,,,,1.74,1.02,1.40*17
$GPGSV,3,1,11,06,15,066,25,10,02,243,25,11,07,099,27,12,78,080,36*7C
$GPGSV,3,2,11,19,20,040,34,22,32,308,30,24,39,123,36,25,65,240,37*77
$GPGSV,3,3,11,29,12,183,27,31,11,292,31,32,51,274,38*48
$GLGSV,3,1,11,65,02,196,,66,39,239,44,67,38,311,36,68,05,350,*6B
$GLGSV,3,2,11,75,37,073,34,76,72,320,40,77,27,275,31,84,19,018,*6A
$GLGSV,3,3,11,85,38,084,31,86,17,131,28,,,,34*6B
$GNGLL,5318.52167,N,00613.46844,W,173303.00,A,A*66
$GNRMC,173304.00,A,5318.52175,N,00613.46833,W,0.019,,251122,,,A*74
$GNVTG,,T,,M,0.019,N,0.035,K,A*33
$GNGGA,173304.00,5318.52175,N,00613.46833,W,1,12,1.19,48.1,M,52.8,M,,*6F
$GNGSA,A,3,25,12,22,06,11,19,32,24,31,,,,1.92,1.19,1.51*15
$GNGSA,A,3,67,76,77,75,85,66,,,,,,,1.92,1.19,1.51*15
$GPGSV,3,1,11,06,15,066,23,10,02,243,24,11,07,099,27,12,78,080,37*7A
$GPGSV,3,2,11,19,20,040,35,22,32,308,32,24,39,123,37,25,65,240,38*7A
$GPGSV,3,3,11,29,12,183,29,31,11,292,32,32,51,274,39*44
$GLGSV,3,1,11,65,02,196,,66,39,239,43,67,38,311,36,68,05,350,*6C
$GLGSV,3,2,11,75,37,073,34,76,72,320,41,77,27,275,34,84,19,018,*6E
$GLGSV,3,3,11,85,38,084,31,86,17,131,28,,,,34*6B
$GNGLL,5318.52175,N,00613.46833,W,173304.00,A,A*62
$GNRMC,173305.00,A,5318.52181,N,00613.46821,W,0.010,,251122,,,A*74
$GNVTG,,T,,M,0.010,N,0.019,K,A*34
$GNGGA,173305.00,5318.52181,N,00613.46821,W,1,12,1.02,47.7,M,52.8,M,,*65
$GNGSA,A,3,25,12,22,06,11,19,32,24,31,,,,1.74,1.02,1.40*17
$GNGSA,A,3,67,76,77,75,85,66,,,,,,,1.74,1.02,1.40*17
$GPGSV,3,1,11,06,15,066,22,10,02,243,24,11,07,099,26,12,78,080,38*75
$GPGSV,3,2,11,19,20,040,35,22,32,308,32,24,39,123,36,25,65,240,38*7B
$GPGSV,3,3,11,29,12,183,31,31,11,292,33,32,51,274,40*42
$GLGSV,3,1,11,65,02,196,,66,39,239,43,67,38,311,36,68,05,350,*6C
$GLGSV,3,2,11,75,37,073,33,76,72,320,41,77,27,275,34,84,19,018,*69
$GLGSV,3,3,11,85,38,084,30,86,17,131,28,,,,33*6D
$GNGLL,5318.52181,N,00613.46821,W,173305.00,A,A*6B
$GNRMC,173306.00,A,5318.52187,N,00613.46811,W,0.018,,251122,,,A*7A
$GNVTG,,T,,M,0.018,N,0.034,K,A*33
$GNGGA,173306.00,5318.52187,N,00613.46811,W,1,12,1.02,47.5,M,52.8,M,,*61
$GNGSA,A,3,25,12,22,06,11,19,32,24,31,,,,1.74,1.02,1.40*17
$GNGSA,A,3,67,76,77,75,85,66,,,,,,,1.74,1.02,1.40*17
$GPGSV,3,1,11,06,15,066,23,10,02,243,23,11,07,099,28,12,78,080,38*7D
$GPGSV,3,2,11,19,20,040,35,22,32,308,33,24,39,123,35,25,65,240,38*79
$GPGSV,3,3,11,29,12,183,31,31,11,292,32,32,51,274,40*43
$GLGSV,3,1,11,65,02,196,,66,39,239,41,67,38,311,33,68,05,350,*6B
$GLGSV,3,2,11,75,37,073,32,76,72,320,39,77,27,275,33,84,19,018,*60
$GLGSV,3,3,11,85,38,084,30,86,17,131,27,,,,32*63
$GNGLL,5318.52187,N,00613.46811,W,173306.00,A,A*6D
$GNRMC,173307.00,A,5318.52191,N,00613.46802,W,0.022,,251122,,,A*77
$GNVTG,,T,,M,0.022,N,0.041,K,A*38
$GNGGA,173307.00,5318.52191,N,00613.46802,W,1,12,1.02,47.3,M,52.8,M,,*63
$GNGSA,A,3,25,12,22,06,11,19,32,24,31,,,,1.74,1.02,1.40*17
$GNGSA,A,3,67,76,77,75,85,66,,,,,,,1.74,1.02,1.40*17
$GPGSV,3,1,11,06,15,066,24,10,02,243,23,11,07,099,28,12,78,080,38*7A
$GPGSV,3,2,11,19,20,040,35,22,32,308,33,24,39,123,35,25,65,240,37*76
$GPGSV,3,3,11,29,12,183,30,31,11,292,33,32,51,274,40*43
$GLGSV,3,1,11,65,02,196,,66,39,239,41,67,38,311,34,68,05,350,*6C
$GLGSV,3,2,11,75,37,073,31,76,72,320,39,77,27,275,32,84,19,018,*62
$GLGSV,3,3,11,85,38,084,29,86,17,131,26,,,,32*6A
$GNGLL,5318.52191,N,00613.46802,W,173307.00,A,A*69
$GNRMC,173308.00,A,5318.52195,N,00613.46798,W,0.021,,251122,,,A*73
$GNVTG,,T,,M,0.021,N,0.039,K,A*34
$GNGGA,173308.00,5318.52195,N,00613.46798,W,1,12,1.02,47.2,M,52.8,M,,*65
$GNGSA,A,3,25,12,22,06,11,19,32,24,31,,,,1.74,1.02,1.40*17
$GNGSA,A,3,67,76,77,75,85,66,,,,,,,1.74,1.02,1.40*17
$GPGSV,3,1,11,06,15,066,25,10,02,243,22,11,07,099,28,12,78,080,39*7B
$GPGSV,3,2,11,19,20,040,34,22,32,308,34,24,39,123,31,25,65,240,38*7B
$GPGSV,3,3,11,29,12,183,31,31,11,292,33,32,51,274,41*43
$GLGSV,3,1,11,65,02,196,,66,39,239,41,67,38,311,35,68,05,350,*6D
$GLGSV,3,2,11,75,37,073,32,76,72,320,39,77,27,275,32,84,19,018,*61
$GLGSV,3,3,11,85,38,084,28,86,17,131,26,,,,32*6B
$GNGLL,5318.52195,N,00613.46798,W,173308.00,A,A*6E
$GNRMC,173309.00,A,5318.52189,N,00613.46803,W,0.019,,251122,,,A*79
$GNVTG,,T,,M,0.019,N,0.034,K,A*32
$GNGGA,173309.00,5318.52189,N,00613.46803,W,1,12,1.01,47.3,M,52.8,M,,*66
$GNGSA,A,3,25,12,22,06,11,19,32,24,31,,,,1.65,1.01,1.30*13
$GNGSA,A,3,67,76,77,75,85,66,,,,,,,1.65,1.01,1.30*13
$GPGSV,3,1,11,06,15,066,26,10,02,243,22,11,07,099,30,12,78,080,37*7F
$GPGSV,3,2,11,19,20,040,34,22,32,308,31,24,39,123,39,25,65,240,38*76
$GPGSV,3,3,11,29,12,183,30,31,11,292,31,32,51,274,41*40
$GLGSV,3,1,11,65,02,196,,66,39,239,41,67,38,311,34,68,05,350,*6C
$GLGSV,3,2,11,75,37,073,25,76,72,320,39,77,27,275,32,84,19,018,*67
$GLGSV,3,3,11,85,38,084,26,86,17,131,25,,,,26*63
$GNGLL,5318.52189,N,00613.46803,W,173309.00,A,A*6F
$GNRMC,173310.00,A,5318.52193,N,00613.46792,W,0.013,,251122,,,A*77
$GNVTG,,T,,M,0.013,N,0.023,K,A*3E
$GNGGA,173310.00,5318.52193,N,00613.46792,W,1,12,1.09,47.3,M,52.8,M,,*6A
$GNGSA,A,3,25,12,22,06,11,19,32,24,31,,,,1.71,1.09,1.31*1F
$GNGSA,A,3,67,76,77,75,85,66,,,,,,,1.71,1.09,1.31*1F
$GPGSV,3,1,11,06,15,066,27,10,02,243,22,11,07,099,29,12,78,080,35*74
$GPGSV,3,2,11,19,20,040,34,22,32,308,33,24,39,123,35,25,65,240,38*78
$GPGSV,3,3,11,29,12,183,30,31,11,292,26,32,51,274,41*46
$GLGSV,3,1,11,65,02,196,,66,39,239,41,67,38,311,34,68,05,350,*6C
$GLGSV,3,2,11,75,37,073,32,76,72,320,39,77,27,275,31,84,19,018,*62
$GLGSV,3,3,11,85,38,084,31,86,17,131,25,,,,33*61
$GNGLL,5318.52193,N,00613.46792,W,173310.00,A,A*6B
$GNRMC,173311.00,A,5318.52195,N,00613.46780,W,0.031,,251122,,,A*73
$GNVTG,,T,,M,0.031,N,0.058,K,A*32
$GNGGA,173311.00,5318.52195,N,00613.46780,W,1,12,1.05,47.2,M,52.8,M,,*63
$GNGSA,A,3,25,12,22,06,11,19,32,24,31,,,,1.75,1.05,1.41*10
$GNGSA,A,3,67,76,77,75,85,66,,,,,,,1.75,1.05,1.41*10
$GPGSV,3,1,11,06,15,066,28,10,02,243,22,11,07,099,30,12,78,080,36*70
$GPGSV,3,2,11,19,20,040,33,22,32,308,34,24,39,123,38,25,65,240,38*75
$GPGSV,3,3,11,29,12,183,29,31,11,292,27,32,51,274,41*4F
$GLGSV,3,1,11,65,02,196,,66,39,239,41,67,38,311,34,68,05,350,*6C
$GLGSV,3,2,11,75,37,073,34,76,72,320,40,77,27,275,31,84,19,018,*6A
$GLGSV,3,3,11,85,38,084,31,86,17,131,26,,,,34*65
$GNGLL,5318.52195,N,00613.46780,W,173311.00,A,A*6F
$GNRMC,173312.00,A,5318.52199,N,00613.46768,W,0.027,,251122,,,A*7D
$GNVTG,,T,,M,0.027,N,0.049,K,A*35
$GNGGA,173312.00,5318.52199,N,00613.46768,W,1,12,1.01,47.3,M,52.8,M,,*6F
$GNGSA,A,3,25,12,22,06,11,19,32,24,31,,,,1.65,1.01,1.30*13
$GNGSA,A,3,67,76,77,75,85,66,,,,,,,1.65,1.01,1.30*13
$GPGSV,3,1,11,06,15,066,29,10,02,243,21,11,07,099,28,12,78,079,36*7D
$GPGSV,3,2,11,19,20,040,33,22,32,308,33,24,39,123,38,25,65,240,37*7D
$GPGSV,3,3,11,29,12,183,28,31,11,292,28,32,51,274,40*40
$GLGSV,3,1,11,65,02,196,,66,39,239,41,67,38,311,34,68,05,350,*6C
$GLGSV,3,2,11,75,37,073,35,76,72,320,40,77,27,275,30,84,19,018,*6A
$GLGSV,3,3,11,85,38,084,30,86,17,131,27,,,,35*64
$GNGLL,5318.52199,N,00613.46768,W,173312.00,A,A*66
$GNRMC,173313.00,A,5318.52199,N,00613.46757,W,0.044,,251122,,,A*75
$GNVTG,,T,,M,0.044,N,0.082,K,A*37
$GNGGA,173313.00,5318.52199,N,00613.46757,W,1,12,1.01,47.4,M,52.8,M,,*65
$GNGSA,A,3,25,12,22,06,11,19,32,24,31,,,,1.65,1.01,1.30*13
$GNGSA,A,3,67,76,77,75,85,66,,,,,,,1.65,1.01,1.30*13
$GPGSV,3,1,11,06,15,066,29,10,02,243,21,11,07,099,28,12,78,079,36*7D
$GPGSV,3,2,11,19,20,040,33,22,32,308,34,24,39,123,38,25,65,240,38*75
$GPGSV,3,3,11,29,12,183,28,31,11,292,29,32,51,274,40*41
$GLGSV,3,1,11,65,02,196,,66,39,239,41,67,38,311,34,68,05,350,*6C
$GLGSV,3,2,11,75,37,073,35,76,72,320,39,77,27,275,30,84,19,018,*64
$GLGSV,3,3,11,85,38,084,31,86,17,131,27,,,,34*64
$GNGLL,5318.52199,N,00613.46757,W,173313.00,A,A*6B
$GNRMC,173314.00,A,5318.52206,N,00613.46743,W,0.029,,251122,,,A*79
$GNVTG,,T,,M,0.029,N,0.054,K,A*37
$GNGGA,173314.00,5318.52206,N,00613.46743,W,1,12,1.14,47.4,M,52.8,M,,*66
$GNGSA,A,3,25,12,22,06,11,19,32,24,31,,,,1.86,1.14,1.47*1A
$GNGSA,A,3,67,76,77,75,85,66,,,,,,,1.86,1.14,1.47*1A
$GPGSV,3,1,11,06,15,066,29,10,02,243,21,11,07,099,26,12,78,079,35*70
$GPGSV,3,2,11,19,20,040,31,22,32,308,32,24,39,123,38,25,65,240,37*7E
$GPGSV,3,3,11,29,12,183,27,31,11,292,28,32,51,274,38*40
$GLGSV,3,1,11,65,02,196,,66,39,239,41,67,38,311,34,68,05,350,*6C
$GLGSV,3,2,11,75,37,073,34,76,72,320,39,77,27,275,30,84,19,018,*65
$GLGSV,3,3,11,85,38,084,31,86,17,131,26,,,,33*62
$GNGLL,5318.52206,N,00613.46743,W,173314.00,A,A*6C
$GNRMC,173315.00,A,5318.52202,N,00613.46747,W,0.055,,251122,,,A*73
$GNVTG,,T,,M,0.055,N,0.102,K,A*3E
$GNGGA,173315.00,5318.52202,N,00613.46747,W,1,12,1.01,47.7,M,52.8,M,,*60
$GNGSA,A,3,25,12,22,06,19,32,24,31,,,,,1.65,1.01,1.30*13
$GNGSA,A,3,67,76,77,75,85,66,,,,,,,1.65,1.01,1.30*13
$GPGSV,3,1,11,06,15,066,29,10,02,243,21,11,07,099,,12,78,079,27*77
$GPGSV,3,2,11,19,20,040,33,22,32,308,33,24,39,123,36,25,65,240,38*7C
$GPGSV,3,3,11,29,12,183,29,31,11,292,28,32,51,274,40*41
$GLGSV,3,1,11,65,02,196,,66,39,239,41,67,38,311,35,68,05,350,*6D
$GLGSV,3,2,11,75,37,073,23,76,72,320,39,77,27,275,30,84,19,018,*63
$GLGSV,3,3,11,85,38,084,24,86,17,131,26,,,,21*65
$GNGLL,5318.52202,N,00613.46747,W,173315.00,A,A*6D
$GNRMC,173316.00,A,5318.52199,N,00613.46741,W,0.037,,251122,,,A*73
$GNVTG,,T,,M,0.037,N,0.068,K,A*37
$GNGGA,173316.00,5318.52199,N,00613.46741,W,1,12,1.01,48.0,M,52.8,M,,*6C
$GNGSA,A,3,25,12,22,06,19,32,24,31,,,,,1.65,1.01,1.30*13
$GNGSA,A,3,67,76,77,75,85,66,,,,,,,1.65,1.01,1.30*13
$GPGSV,3,1,11,06,15,066,29,10,02,243,21,11,07,099,26,12,78,079,36*73
$GPGSV,3,2,11,19,20,040,28,22,32,308,32,24,39,123,38,25,65,240,38*79
$GPGSV,3,3,11,29,12,183,28,31,11,292,29,32,51,274,40*41
$GLGSV,3,1,11,65,02,196,,66,39,239,39,67,38,311,34,68,05,350,*63
$GLGSV,3,2,11,75,37,073,34,76,72,320,39,77,27,275,29,84,19,018,*6D
$GLGSV,3,3,11,85,38,084,30,86,17,131,26,,,,32*62
$GNGLL,5318.52199,N,00613.46741,W,173316.00,A,A*69
$GNRMC,173317.00,A,5318.52184,N,00613.46746,W,0.032,,251122,,,A*7C
$GNVTG,,T,,M,0.032,N,0.060,K,A*3A
$GNGGA,173317.00,5318.52184,N,00613.46746,W,1,12,1.01,48.5,M,52.8,M,,*63
$GNGSA,A,3,25,12,22,06,11,19,32,24,31,,,,1.65,1.01,1.30*13
$GNGSA,A,3,67,76,77,75,85,66,,,,,,,1.65,1.01,1.30*13
$GPGSV,3,1,11,06,15,066,29,10,02,243,21,11,07,099,28,12,78,079,36*7D
$GPGSV,3,2,11,19,20,040,34,22,32,308,33,24,39,123,40,25,65,240,38*7A
$GPGSV,3,3,11,29,12,183,29,31,11,292,29,32,51,274,39*4E
$GLGSV,3,1,11,65,02,196,,66,39,239,37,67,38,311,34,68,05,350,*6D
$GLGSV,3,2,11,75,37,073,34,76,72,320,39,77,27,275,29,84,19,018,*6D
$GLGSV,3,3,11,85,38,084,31,86,17,131,27,,,,33*63
$GNGLL,5318.52184,N,00613.46746,W,173317.00,A,A*63
$GNRMC,173318.00,A,5318.52177,N,00613.46739,W,0.029,,251122,,,A*7D
$GNVTG,,T,,M,0.029,N,0.054,K,A*37
$GNGGA,173318.00,5318.52177,N,00613.46739,W,1,12,1.02,48.9,M,52.8,M,,*67
$GNGSA,A,3,25,12,22,06,19,32,24,31,,,,,1.74,1.02,1.40*17
$GNGSA,A,3,67,76,77,75,85,66,,,,,,,1.74,1.02,1.40*17
$GPGSV,3,1,11,06,15,066,29,10,02,243,20,11,07,099,29,12,78,079,36*7D
$GPGSV,3,2,11,19,20,040,33,22,32,308,34,24,39,123,40,25,65,240,38*7A
$GPGSV,3,3,11,29,12,183,30,31,11,292,33,32,51,274,40*43
$GLGSV,3,1,11,65,02,196,,66,39,239,34,67,38,311,34,68,05,350,*6E
$GLGSV,3,2,11,75,37,073,34,76,72,320,40,77,27,275,30,84,19,018,*6B
$GLGSV,3,3,11,85,38,084,32,86,17,131,27,,,,32*61
$GNGLL,5318.52177,N,00613.46739,W,173318.00,A,A*68
$GNRMC,173319.00,A,5318.52165,N,00613.46743,W,0.004,,251122,,,A*7D
$GNVTG,,T,,M,0.004,N,0.007,K,A*3E
$GNGGA,173319.00,5318.52165,N,00613.46743,W,1,12,1.01,49.3,M,52.8,M,,*60
$GNGSA,A,3,25,12,22,06,11,19,32,24,31,,,,1.65,1.01,1.30*13
$GNGSA,A,3,67,76,77,75,85,66,,,,,,,1.65,1.01,1.30*13
$GPGSV,3,1,11,06,15,066,28,10,02,243,19,11,07,099,29,12,78,079,36*76
$GPGSV,3,2,11,19,20,040,34,22,32,308,33,24,39,123,39,25,65,240,39*75
$GPGSV,3,3,11,29,12,183,32,31,11,292,33,32,51,274,41*40
$GLGSV,3,1,11,65,02,196,,66,39,239,34,67,38,311,34,68,05,350,*6E
$GLGSV,3,2,11,75,37,073,34,76,72,320,40,77,27,275,30,84,19,018,*6B
$GLGSV,3,3,11,85,38,084,32,86,17,131,27,,,,33*60
$GNGLL,5318.52165,N,00613.46743,W,173319.00,A,A*67
$GNRMC,173320.00,A,5318.52152,N,00613.46748,W,0.038,,251122,,,A*77
$GNVTG,,T,,M,0.038,N,0.071,K,A*30
$GNGGA,173320.00,5318.52152,N,00613.46748,W,1,12,1.01,49.6,M,52.8,M,,*60
$GNGSA,A,3,25,12,22,06,11,19,32,24,31,,,,1.65,1.01,1.30*13
$GNGSA,A,3,67,76,77,75,85,66,,,,,,,1.65,1.01,1.30*13
$GPGSV,3,1,11,06,15,066,28,10,02,243,17,11,07,099,30,12,78,079,35*73
$GPGSV,3,2,11,19,20,040,34,22,32,308,33,24,39,123,39,25,65,240,38*74
$GPGSV,3,3,11,29,12,183,32,31,11,292,32,32,51,274,41*41
$GLGSV,3,1,11,65,02,196,,66,39,239,34,67,38,311,34,68,05,350,*6E
$GLGSV,3,2,11,75,37,073,34,76,72,320,41,77,27,275,31,84,19,018,*6B
$GLGSV,3,3,11,85,38,084,33,86,17,131,29,,,,33*6F
$GNGLL,5318.52152,N,00613.46748,W,173320.00,A,A*62
$GNRMC,173321.00,A,5318.52144,N,00613.46750,W,0.035,,251122,,,A*75
$GNVTG,,T,,M,0.035,N,0.066,K,A*3B
$GNGGA,173321.00,5318.52144,N,00613.46750,W,1,12,1.01,49.8,M,52.8,M,,*61
$GNGSA,A,3,25,12,22,06,11,19,32,24,31,,,,1.65,1.01,1.30*13
$GNGSA,A,3,67,76,77,75,85,66,,,,,,,1.65,1.01,1.30*13
$GPGSV,3,1,11,06,15,066,27,10,02,243,15,11,07,099,22,12,78,079,35*7D
$GPGSV,3,2,11,19,20,040,33,22,32,308,33,24,39,123,39,25,65,240,37*7C
$GPGSV,3,3,11,29,12,183,31,31,11,292,32,32,51,274,41*42
$GLGSV,3,1,11,65,02,196,,66,39,239,40,67,38,311,35,68,05,350,*6C
$GLGSV,3,2,11,75,37,073,35,76,72,320,42,77,27,275,32,84,19,018,*6A
$GLGSV,3,3,11,85,38,084,32,86,17,131,32,,,,34*63
$GNGLL,5318.52144,N,00613.46750,W,173321.00,A,A*6D
$GNRMC,173322.00,A,5318.52136,N,00613.46755,W,0.029,,251122,,,A*7B
$GNVTG,,T,,M,0.029,N,0.054,K,A*37
$GNGGA,173322.00,5318.52136,N,00613.46755,W,1,12,1.01,50.0,M,52.8,M,,*62
$GNGSA,A,3,25,12,22,06,11,19,32,24,31,,,,1.65,1.01,1.30*13
$GNGSA,A,3,67,76,77,75,85,66,,,,,,,1.65,1.01,1.30*13
$GPGSV,3,1,11,06,15,066,28,10,02,243,12,11,07,099,29,12,78,079,35*7E
$GPGSV,3,2,11,19,20,040,33,22,32,308,35,24,39,123,39,25,65,240,40*7A
$GPGSV,3,3,11,29,12,183,30,31,11,292,32,32,51,274,39*4C
$GLGSV,3,1,11,65,02,196,,66,39,239,43,67,38,311,36,68,05,350,*6C
$GLGSV,3,2,11,75,37,073,35,76,72,320,41,77,27,275,33,84,19,018,*68
$GLGSV,3,3,11,85,38,084,33,86,17,131,30,,,,34*60
$GNGLL,5318.52136,N,00613.46755,W,173322.00,A,A*6E
$GNRMC,173323.00,A,5318.52136,N,00613.46748,W,0.028,,251122,,,A*77
$GNVTG,,T,,M,0.028,N,0.052,K,A*30
$GNGGA,173323.00,5318.52136,N,00613.46748,W,1,12,1.02,49.8,M,52.8,M,,*6C
$GNGSA,A,3,25,12,22,06,11,19,32,24,31,,,,1.74,1.02,1.40*17
$GNGSA,A,3,67,76,77,75,85,66,,,,,,,1.74,1.02,1.40*17
$GPGSV,3,1,11,06,15,066,28,10,02,243,12,11,07,099,30,12,78,079,38*7B
$GPGSV,3,2,11,19,20,040,27,22,32,308,35,24,39,123,39,25,65,240,40*7F
$GPGSV,3,3,11,29,12,183,31,31,11,292,34,32,51,274,39*4B
$GLGSV,3,1,11,65,02,196,,66,39,239,44,67,38,311,36,68,05,350,*6B
$GLGSV,3,2,11,75,37,073,34,76,72,320,41,77,27,275,32,84,19,018,*68
$GLGSV,3,3,11,85,38,084,34,86,17,131,30,,,,33*60
$GNGLL,5318.52136,N,00613.46748,W,173323.00,A,A*63
$GNRMC,173324.00,A,5318.52130,N,00613.46750,W,0.019,,251122,,,A*7D
$GNVTG,,T,,M,0.019,N,0.035,K,A*33
$GNGGA,173324.00,5318.52130,N,00613.46750,W,1,12,1.01,49.8,M,52.8,M,,*67
$GNGSA,A,3,25,12,22,06,11,19,32,24,31,,,,1.65,1.01,1.30*13
$GNGSA,A,3,67,76,77,75,85,66,,,,,,,1.65,1.01,1.30*13
$GPGSV,3,1,11,06,15,066,27,10,02,243,16,11,07,099,21,12,78,079,37*7F
$GPGSV,3,2,11,19,20,040,33,22,32,308,32,24,39,123,40,25,65,240,40*73
$GPGSV,3,3,11,29,12,183,32,31,11,292,34,32,51,274,39*48
$GLGSV,3,1,11,65,02,196,,66,39,239,44,67,38,311,36,68,05,350,*6B
$GLGSV,3,2,11,75,37,073,34,76,72,320,41,77,27,275,31,84,19,018,*6B
$GLGSV,3,3,11,85,38,084,34,86,17,131,31,,,,33*61
$GNGLL,5318.52130,N,00613.46750,W,173324.00,A,A*6B
$GNRMC,173325.00,A,5318.52123,N,00613.46753,W,0.026,,251122,,,A*71
$GNVTG,,T,,M,0.026,N,0.047,K,A*3A
$GNGGA,173325.00,5318.52123,N,00613.46753,W,1,12,1.01,49.8,M,52.8,M,,*67
$GNGSA,A,3,25,12,22,06,11,19,32,24,31,,,,1.65,1.01,1.30*13
$GNGSA,A,3,67,76,77,75,85,66,,,,,,,1.65,1.01,1.30*13
$GPGSV,3,1,11,06,15,066,26,10,02,243,17,11,07,099,25,12,78,079,37*7B
$GPGSV,3,2,11,19,20,040,33,22,32,308,32,24,39,123,40,25,66,240,40*70
$GPGSV,3,3,11,29,12,183,31,31,11,292,33,32,51,274,39*4C
$GLGSV,3,1,11,65,02,196,,66,39,239,44,67,38,311,36,68,05,350,*6B
$GLGSV,3,2,11,75,37,073,34,76,72,320,41,77,27,275,31,84,19,018,*6B
$GLGSV,3,3,11,85,38,084,34,86,17,131,31,,,,34*66
$GNGLL,5318.52123,N,00613.46753,W,173325.00,A,A*6B
$GNRMC,173326.00,A,5318.52118,N,00613.46755,W,0.011,,251122,,,A*78
$GNVTG,,T,,M,0.011,N,0.020,K,A*3F
$GNGGA,173326.00,5318.52118,N,00613.46755,W,1,12,1.01,49.8,M,52.8,M,,*6A
$GNGSA,A,3,25,12,22,06,11,19,32,24,31,,,,1.65,1.01,1.30*13
$GNGSA,A,3,67,76,77,75,85,66,,,,,,,1.65,1.01,1.30*13
$GPGSV,3,1,11,06,15,066,26,10,02,243,16,11,07,099,29,12,78,079,38*79
$GPGSV,3,2,11,19,20,040,32,22,32,308,33,24,39,123,40,25,66,240,38*7F
$GPGSV,3,3,11,29,12,183,32,31,11,292,34,32,51,274,39*48
$GLGSV,3,1,11,65,02,196,,66,39,239,44,67,38,311,36,68,05,350,*6B
$GLGSV,3,2,11,75,37,073,34,76,72,320,41,77,27,275,31,84,19,018,*6B
$GLGSV,3,3,11,85,38,084,34,86,17,131,30,,,,33*60
$GNGLL,5318.52118,N,00613.46755,W,173326.00,A,A*66
$GNRMC,173327.00,A,5318.52116,N,00613.46756,W,0.024,,251122,,,A*72
$GNVTG,,T,,M,0.024,N,0.044,K,A*3B
$GNGGA,173327.00,5318.52116,N,00613.46756,W,1,12,1.01,49.6,M,52.8,M,,*68
$GNGSA,A,3,25,12,22,06,11,19,32,24,31,,,,1.65,1.01,1.30*13
$GNGSA,A,3,67,76,77,75,85,66,,,,,,,1.65,1.01,1.30*13
$GPGSV,3,1,11,06,15,066,25,10,02,243,14,11,07,099,30,12,78,079,38*70
$GPGSV,3,2,11,19,20,040,31,22,32,308,33,24,39,123,40,25,66,240,38*7C
$GPGSV,3,3,11,29,13,183,32,31,11,292,37,32,51,274,38*4B
$GLGSV,3,1,11,65,02,196,,66,39,239,45,67,38,311,36,68,05,350,*6A
$GLGSV,3,2,11,75,37,073,35,76,72,320,40,77,27,275,30,84,19,018,*6A
$GLGSV,3,3,11,85,38,084,34,86,17,131,29,,,,34*6F
$GNGLL,5318.52116,N,00613.46756,W,173327.00,A,A*6A
$GNRMC,173328.00,A,5318.52113,N,00613.46757,W,0.003,,251122,,,A*7C
$GNVTG,,T,,M,0.003,N,0.005,K,A*3B
$GNGGA,173328.00,5318.52113,N,00613.46757,W,1,12,1.01,49.6,M,52.8,M,,*63
$GNGSA,A,3,25,12,22,06,11,19,32,24,31,,,,1.65,1.01,1.30*13
$GNGSA,A,3,67,76,77,75,85,66,,,,,,,1.65,1.01,1.30*13
$GPGSV,3,1,11,06,15,066,25,10,02,243,16,11,07,099,23,12,78,079,37*7F
$GPGSV,3,2,11,19,20,040,31,22,32,308,32,24,39,123,40,25,66,240,38*7D
$GPGSV,3,3,11,29,13,183,32,31,11,292,34,32,51,274,38*48
$GLGSV,3,1,11,65,02,196,,66,39,239,45,67,38,311,34,68,05,350,*68
$GLGSV,3,2,11,75,37,073,34,76,72,320,40,77,27,275,29,84,19,018,*63
$GLGSV,3,3,11,85,38,084,34,86,17,131,28,,,,33*69
$GNGLL,5318.52113,N,00613.46757,W,173328.00,A,A*61
$GNRMC,173329.00,A,5318.52108,N,00613.46761,W,0.025,,251122,,,A*76
$GNVTG,,T,,M,0.025,N,0.046,K,A*38
$GNGGA,173329.00,5318.52108,N,00613.46761,W,1,12,1.01,49.7,M,52.8,M,,*6C
$GNGSA,A,3,25,12,22,06,11,19,32,24,31,,,,1.65,1.01,1.30*13
$GNGSA,A,3,67,76,77,75,85,66,,,,,,,1.65,1.01,1.30*13
$GPGSV,3,1,11,06,15,066,25,10,02,243,18,11,07,099,24,12,78,079,37*76
$GPGSV,3,2,11,19,20,040,33,22,32,308,31,24,39,123,41,25,66,240,40*72
$GPGSV,3,3,11,29,13,183,32,31,12,292,30,32,51,274,37*40
$GLGSV,3,1,11,65,02,196,,66,39,239,45,67,38,311,34,68,05,350,*68
$GLGSV,3,2,11,75,37,073,34,76,72,320,40,77,27,275,29,84,19,018,*63
$GLGSV,3,3,11,85,38,084,33,86,17,131,28,,,,32*6F
$GNGLL,5318.52108,N,00613.46761,W,173329.00,A,A*6F
$GNRMC,173330.00,A,5318.52111,N,00613.46758,W,0.032,,251122,,,A*7A
$GNVTG,,T,,M,0.032,N,0.060,K,A*3A
$GNGGA,173330.00,5318.52111,N,00613.46758,W,1,12,1.09,49.6,M,52.8,M,,*6F
$GNGSA,A,3,25,12,22,06,11,19,32,24,31,,,,1.71,1.09,1.31*1F
$GNGSA,A,3,67,76,77,75,85,66,,,,,,,1.71,1.09,1.31*1F
$GPGSV,3,1,11,06,15,066,25,10,02,243,18,11,07,099,25,12,78,079,37*77
$GPGSV,3,2,11,19,20,040,35,22,32,308,33,24,39,123,41,25,66,240,39*78
$GPGSV,3,3,11,29,13,183,32,31,12,292,30,32,51,273,38*48
$GLGSV,3,1,11,65,02,196,,66,39,239,44,67,38,311,35,68,05,350,*68
$GLGSV,3,2,11,75,37,073,34,76,72,320,41,77,27,275,29,84,19,018,*62
$GLGSV,3,3,11,85,38,084,33,86,17,131,29,,,,33*6F
$GNGLL,5318.52111,N,00613.46758,W,173330.00,A,A*65
$GNRMC,173331.00,A,5318.52122,N,00613.46754,W,0.045,,251122,,,A*77
$GNVTG,,T,,M,0.045,N,0.084,K,A*30
$GNGGA,173331.00,5318.52122,N,00613.46754,W,1,12,0.73,49.8,M,52.8,M,,*60
$GNGSA,A,3,25,12,22,06,11,19,32,24,29,31,,,1.29,0.73,1.06*11
$GNGSA,A,3,67,76,77,75,85,66,,,,,,,1.29,0.73,1.06*1A
$GPGSV,3,1,11,06,15,066,25,10,02,243,18,11,07,099,26,12,78,079,37*74
$GPGSV,3,2,11,19,20,040,28,22,32,308,33,24,39,123,41,25,66,240,38*75
$GPGSV,3,3,11,29,13,183,31,31,12,292,31,32,51,273,41*44
$GLGSV,3,1,11,65,02,196,,66,39,239,43,67,38,311,35,68,05,350,*6F
$GLGSV,3,2,11,75,37,073,36,76,72,320,41,77,27,275,29,84,19,018,*60
$GLGSV,3,3,11,85,38,084,29,86,17,131,28,,,,36*60
$GNGLL,5318.52122,N,00613.46754,W,173331.00,A,A*68
$GNRMC,173332.00,A,5318.52132,N,00613.46748,W,0.011,,251122,,,A*79
$GNVTG,,T,,M,0.011,N,0.021,K,A*3E
$GNGGA,173332.00,5318.52132,N,00613.46748,W,1,12,0.73,50.0,M,52.8,M,,*6F
$GNGSA,A,3,25,12,22,06,19,32,24,29,31,,,,1.29,0.73,1.06*11
$GNGSA,A,3,67,76,77,75,85,66,,,,,,,1.29,0.73,1.06*1A
$GPGSV,3,1,11,06,15,066,25,10,02,243,18,11,07,099,,12,78,079,37*70
$GPGSV,3,2,11,19,20,040,28,22,32,308,33,24,39,123,42,25,66,240,40*79
$GPGSV,3,3,11,29,13,183,30,31,12,292,32,32,51,273,39*49
$GLGSV,3,1,11,65,02,196,,66,39,239,44,67,38,311,33,68,05,350,*6E
$GLGSV,3,2,11,75,37,073,37,76,72,320,40,77,27,275,29,84,19,018,*60
$GLGSV,3,3,11,85,38,084,32,86,17,131,28,,,,36*6A
$GNGLL,5318.52132,N,00613.46748,W,173332.00,A,A*67
$GNRMC,173333.00,A,5318.52141,N,00613.46741,W,0.018,,251122,,,A*7C
$GNVTG,,T,,M,0.018,N,0.034,K,A*33
$GNGGA,173333.00,5318.52141,N,00613.46741,W,1,12,0.73,50.3,M,52.8,M,,*60
$GNGSA,A,3,25,12,22,06,19,32,24,29,31,,,,1.29,0.73,1.06*11
$GNGSA,A,3,67,76,77,75,85,66,,,,,,,1.29,0.73,1.06*1A
$GPGSV,3,1,11,06,15,066,24,10,02,243,19,11,07,099,26,12,78,079,38*7B
$GPGSV,3,2,11,19,20,040,29,22,32,308,34,24,39,123,41,25,66,240,40*7C
$GPGSV,3,3,11,29,13,183,30,31,12,292,32,32,51,273,39*49
$GLGSV,3,1,11,65,02,196,,66,39,239,44,67,38,311,33,68,05,350,*6E
$GLGSV,3,2,11,75,37,073,37,76,72,320,40,77,27,275,28,84,19,018,*61
$GLGSV,3,3,11,85,38,084,33,86,17,131,28,,,,35*68
$GNGLL,5318.52141,N,00613.46741,W,173333.00,A,A*6B
$GNRMC,173334.00,A,5318.52148,N,00613.46737,W,0.014,,251122,,,A*7F
$GNVTG,,T,,M,0.014,N,0.026,K,A*3C
$GNGGA,173334.00,5318.52148,N,00613.46737,W,1,12,0.73,50.5,M,52.8,M,,*69
$GNGSA,A,3,25,12,22,06,11,19,32,24,29,31,,,1.29,0.73,1.06*11
$GNGSA,A,3,67,76,77,75,85,66,,,,,,,1.29,0.73,1.06*1A
$GPGSV,3,1,11,06,15,066,24,10,02,243,20,11,07,099,26,12,78,079,38*71
$GPGSV,3,2,11,19,20,040,28,22,32,308,34,24,39,123,41,25,66,240,40*7D
$GPGSV,3,3,11,29,13,183,30,31,12,292,32,32,51,273,40*47
$GLGSV,3,1,11,65,02,196,,66,39,239,44,67,38,311,35,68,05,350,*68
$GLGSV,3,2,11,75,37,073,36,76,72,320,41,77,27,275,29,84,19,018,*60
$GLGSV,3,3,11,85,38,084,34,86,17,131,28,,,,35*6F
$GNGLL,5318.52148,N,00613.46737,W,173334.00,A,A*64
$GNRMC,173335.00,A,5318.52155,N,00613.46734,W,0.019,,251122,,,A*7C
$GNVTG,,T,,M,0.019,N,0.035,K,A*33
$GNGGA,173335.00,5318.52155,N,00613.46734,W,1,12,0.73,50.6,M,52.8,M,,*64
$GNGSA,A,3,25,12,22,06,19,32,24,29,31,,,,1.29,0.73,1.06*11
$GNGSA,A,3,67,76,77,75,85,66,,,,,,,1.29,0.73,1.06*1A
$GPGSV,3,1,11,06,15,066,25,10,02,243,20,11,07,099,,12,78,079,38*74
$GPGSV,3,2,11,19,20,040,28,22,32,308,34,24,39,123,41,25,66,240,40*7D
$GPGSV,3,3,11,29,13,183,30,31,12,292,32,32,51,273,40*47
$GLGSV,3,1,11,65,02,196,,66,39,239,45,67,38,311,36,68,05,350,*6A
$GLGSV,3,2,11,75,37,073,35,76,72,320,41,77,27,275,30,84,19,018,*6B
$GLGSV,3,3,11,85,38,084,34,86,17,131,28,,,,34*6E
$GNGLL,5318.52155,N,00613.46734,W,173335.00,A,A*6A
$GNRMC,173336.00,A,5318.52160,N,00613.46732,W,0.024,,251122,,,A*71
$GNVTG,,T,,M,0.024,N,0.045,K,A*3A
$GNGGA,173336.00,5318.52160,N,00613.46732,W,1,12,0.73,50.8,M,52.8,M,,*69
$GNGSA,A,3,25,12,22,06,19,32,24,29,31,,,,1.29,0.73,1.06*11
$GNGSA,A,3,67,76,77,75,85,66,,,,,,,1.29,0.73,1.06*1A
$GPGSV,3,1,11,06,15,066,25,10,02,243,21,11,07,099,23,12,78,079,37*7B
$GPGSV,3,2,11,19,20,040,27,22,32,308,33,24,39,123,40,25,66,240,39*7A
$GPGSV,3,3,11,29,13,183,30,31,12,292,26,32,51,273,40*42
$GLGSV,3,1,11,65,02,196,,66,39,239,44,67,38,311,35,68,05,350,*68
$GLGSV,3,2,11,75,37,073,35,76,72,320,41,77,27,275,30,84,19,018,*6B
$GLGSV,3,3,11,85,38,084,34,86,17,131,28,,,,34*6E
$GNGLL,5318.52160,N,00613.46732,W,173336.00,A,A*69
$GNRMC,173337.00,A,5318.52170,N,00613.46728,W,0.015,,251122,,,A*78
$GNVTG,,T,,M,0.015,N,0.027,K,A*3C
$GNGGA,173337.00,5318.52170,N,00613.46728,W,1,12,0.79,51.1,M,52.8,M,,*60
$GNGSA,A,3,25,12,22,06,11,19,32,24,29,31,,,1.35,0.79,1.10*11
$GNGSA,A,3,67,76,77,75,85,66,,,,,,,1.35,0.79,1.10*1A
$GPGSV,3,1,11,06,15,066,25,10,02,243,22,11,07,099,25,12,78,079,36*7F
$GPGSV,3,2,11,19,20,040,20,22,32,308,34,24,39,123,33,25,66,240,39*7E
$GPGSV,3,3,11,29,13,183,31,31,12,292,31,32,51,273,41*44
$GLGSV,3,1,11,65,02,196,,66,39,239,45,67,38,311,34,68,05,350,*68
$GLGSV,3,2,11,75,37,073,34,76,72,320,41,77,27,275,30,84,19,018,*6A
$GLGSV,3,3,11,85,38,084,34,86,17,131,29,,,,33*68
$GNGLL,5318.52170,N,00613.46728,W,173337.00,A,A*62
$GNRMC,173338.00,A,5318.52185,N,00613.46721,W,0.036,,251122,,,A*75
$GNVTG,,T,,M,0.036,N,0.066,K,A*38
$GNGGA,173338.00,5318.52185,N,00613.46721,W,1,12,0.88,51.2,M,52.8,M,,*61
$GNGSA,A,3,25,12,22,06,11,19,32,24,29,31,,,1.53,0.88,1.25*19
$GNGSA,A,3,67,76,77,75,85,66,,,,,,,1.53,0.88,1.25*12
$GPGSV,3,1,11,06,15,066,25,10,02,243,21,11,07,099,25,12,78,079,36*7C
$GPGSV,3,2,11,19,20,040,19,22,32,308,34,24,39,123,34,25,66,240,39*73
$GPGSV,3,3,11,29,13,183,32,31,12,292,30,32,51,273,41*46
$GLGSV,3,1,11,65,02,196,,66,39,239,45,67,38,311,33,68,05,350,*6F
$GLGSV,3,2,11,75,37,073,33,76,72,320,41,77,27,275,30,84,19,018,*6D
$GLGSV,3,3,11,85,38,084,34,86,17,131,29,,,,31*6A
$GNGLL,5318.52185,N,00613.46721,W,173338.00,A,A*6E
$GNRMC,173339.00,A,5318.52202,N,00613.46715,W,0.045,,251122,,,A*7B
$GNVTG,,T,,M,0.045,N,0.083,K,A*37
$GNGGA,173339.00,5318.52202,N,00613.46715,W,1,12,0.88,51.3,M,52.8,M,,*6A
$GNGSA,A,3,25,12,22,06,11,19,32,24,29,31,,,1.53,0.88,1.25*19
$GNGSA,A,3,67,76,77,75,85,66,,,,,,,1.53,0.88,1.25*12
$GPGSV,3,1,11,06,15,066,25,10,02,243,22,11,07,099,26,12,78,079,37*7D
$GPGSV,3,2,11,19,20,040,18,22,32,308,30,24,39,123,34,25,66,240,39*76
$GPGSV,3,3,11,29,13,183,32,31,12,292,32,32,51,273,41*44
$GLGSV,3,1,11,65,02,196,,66,39,239,45,67,38,311,36,68,05,350,*6A
$GLGSV,3,2,11,75,37,073,33,76,72,320,41,77,27,275,30,84,19,018,*6D
$GLGSV,3,3,11,85,38,084,34,86,17,131,29,,,,31*6A
$GNGLL,5318.52202,N,00613.46715,W,173339.00,A,A*64
$GNRMC,173340.00,A,5318.52218,N,00613.46708,W,0.052,,251122,,,A*74
$GNVTG,,T,,M,0.052,N,0.096,K,A*35
$GNGGA,173340.00,5318.52218,N,00613.46708,W,1,12,0.88,51.4,M,52.8,M,,*64
$GNGSA,A,3,25,12,22,06,11,19,32,24,29,31,,,1.53,0.88,1.25*19
$GNGSA,A,3,67,76,77,75,85,66,,,,,,,1.53,0.88,1.25*12
$GPGSV,3,1,11,06,15,066,24,10,02,243,21,11,07,099,28,12,78,079,38*7E
$GPGSV,3,2,11,19,20,040,16,22,32,308,35,24,39,123,33,25,66,240,39*7A
$GPGSV,3,3,11,29,13,183,32,31,12,292,24,32,51,273,40*42
$GLGSV,3,1,11,65,02,196,,66,39,239,45,67,38,311,33,68,05,350,*6F
$GLGSV,3,2,11,75,37,073,33,76,72,320,41,77,27,275,31,84,19,018,*6C
$GLGSV,3,3,11,85,38,084,35,86,17,131,29,,,,31*6B
$GNGLL,5318.52218,N,00613.46708,W,173340.00,A,A*6D
$GNRMC,173341.00,A,5318.52237,N,00613.46702,W,0.058,,251122,,,A*78
$GNVTG,,T,,M,0.058,N,0.108,K,A*39
$GNGGA,173341.00,5318.52237,N,00613.46702,W,1,12,0.88,51.5,M,52.8,M,,*63
$GNGSA,A,3,25,12,22,06,11,19,32,24,29,31,,,1.53,0.88,1.25*19
$GNGSA,A,3,67,76,77,75,85,66,,,,,,,1.53,0.88,1.25*12
$GPGSV,3,1,11,06,15,066,25,10,02,243,20,11,07,099,32,12,78,079,38*75
